

<---------- BEGIN TRANSMISSION ---------->

GOT REPLY: HEYY$GPGGA,171041.000,4025.2980,N,07956.9881,W,2,10,0.99,245.3,M,-30*55



HEADER CONFIRMED

PACKET CONTAINS NMEA DATA

SENDING PACKET... DONE!

RSSI: -31

<----------  END TRANSMISSION  ---------->



<---------- BEGIN TRANSMISSION ---------->

GOT REPLY: HEYY$GPGGA,171045.000,4025.2980,N,07956.9881,W,2,10,0.99,245.3,M,-3$GPGGA,171046.000,

HEADER CONFIRMED

PACKET CONTAINS NMEA DATA

SENDING PACKET... DONE!

RSSI: -31

<----------  END TRANSMISSION  ---------->



<---------- BEGIN TRANSMISSION ---------->

GOT REPLY: HEYY$GPGGA,171049.000,4025.2980,N,07956.9881,W,2,10,0.99,245.3,M,-37956.9881,W,2,10,0

HEADER CONFIRMED

PACKET CONTAINS NMEA DATA

SENDING PACKET... DONE!

RSSI: -30

<----------  END TRANSMISSION  ---------->



<---------- BEGIN TRANSMISSION ---------->

GOT REPLY: HEYY$GPGGA,171053.000,4025.2980,N,07956.9881,W,2,10,0.99,245.3,M,-36.9881,W,2,10,0.99

HEADER CONFIRMED

PACKET CONTAINS NMEA DATA

SENDING PACKET... DONE!

RSSI: -32

<----------  END TRANSMISSION  ---------->



<---------- BEGIN TRANSMISSION ---------->

GOT REPLY: HEYY$GPGGA,171057.000,4025.2980,N,07956.9881,W,2,10,0.99,245.3,M,-3GPGGA,171058.000,4

HEADER CONFIRMED

PACKET CONTAINS NMEA DATA

SENDING PACKET... DONE!

RSSI: -30

<----------  END TRANSMISSION  ---------->



<---------- BEGIN TRANSMISSION ---------->

GOT REPLY: HEYY$GPGGA,171101.000,4025.2980,N,07956.9881,W,2,10,0.99,245.3,M,-3$GPGGA,171102.000,

HEADER CONFIRMED

PACKET CONTAINS NMEA DATA

SENDING PACKET... DONE!

RSSI: -43

<----------  END TRANSMISSION  ---------->



<---------- BEGIN TRANSMISSION ---------->

GOT REPLY: HEYY$GPGGA,171105.000,4025.2982,N,07956.9882,W,2,10,0.89,245.3,M,-3,M,-33.0,M,0000,00

HEADER CONFIRMED

PACKET CONTAINS NMEA DATA

SENDING PACKET... DONE!

RSSI: -44

<----------  END TRANSMISSION  ---------->



<---------- BEGIN TRANSMISSION ---------->

GOT REPLY: HEYY$GPGGA,171109.000,4025.2983,N,07956.9884,W,2,10,0.99,245.0,M,-3$GPGGA,171110.000,

HEADER CONFIRMED

PACKET CONTAINS NMEA DATA

SENDING PACKET... DONE!

RSSI: -51

<----------  END TRANSMISSION  ---------->



<---------- BEGIN TRANSMISSION ---------->

GOT REPLY: HEYY$GPGGA,171113.000,4025.2998,N,07956.9898,W,2,10,0.89,244.5,M,-3,-33.0,M,0000,0000

HEADER CONFIRMED

PACKET CONTAINS NMEA DATA

SENDING PACKET... DONE!

RSSI: -42

<----------  END TRANSMISSION  ---------->



<---------- BEGIN TRANSMISSION ---------->

GOT REPLY: HEYY$GPGGA,171117.000,4025.3020,N,07956.9914,W,2,10,0.89,244.3,M,-3.3026,N,07956.9917

HEADER CONFIRMED

PACKET CONTAINS NMEA DATA

SENDING PACKET... DONE!

RSSI: -51

<----------  END TRANSMISSION  ---------->



<---------- BEGIN TRANSMISSION ---------->

GOT REPLY: HEYY$GPGGA,171121.000,4025.3043,N,07956.9929,W,2,10,0.89,244.0,M,-3$GPGGA,171122.000,

HEADER CONFIRMED

PACKET CONTAINS NMEA DATA

SENDING PACKET... DONE!

RSSI: -52

<----------  END TRANSMISSION  ---------->



<---------- BEGIN TRANSMISSION ---------->

GOT REPLY: HEYY$GPGGA,171125.000,4025.3072,N,07956.9945,W,2,10,0.89,243.8,M,-307956.9950,W,2,10,

HEADER CONFIRMED

PACKET CONTAINS NMEA DATA

SENDING PACKET... DONE!

RSSI: -56

<----------  END TRANSMISSION  ---------->



<---------- BEGIN TRANSMISSION ---------->

GOT REPLY: HEYY$GPGGA,171129.000,4025.3103,N,07956.9965,W,2,10,0.89,243.2,M,-325.3111,N,07956.99

HEADER CONFIRMED

PACKET CONTAINS NMEA DATA

SENDING PACKET... DONE!

RSSI: -62

<----------  END TRANSMISSION  ---------->



<---------- BEGIN TRANSMISSION ---------->

GOT REPLY: HEYY$GPGGA,171133.000,4025.3133,N,07956.9981,W,2,10,0.89,242.6,M,-3$GPGGA,171134.000,

HEADER CONFIRMED

PACKET CONTAINS NMEA DATA

SENDING PACKET... DONE!

RSSI: -59

<----------  END TRANSMISSION  ---------->



<---------- BEGIN TRANSMISSION ---------->

GOT REPLY: HEYY$GPGGA,171137.000,4025.3163,N,07956.9995,W,2,10,0.89,241.8,M,-3000,4025.3169,N,07

HEADER CONFIRMED

PACKET CONTAINS NMEA DATA

SENDING PACKET... DONE!

RSSI: -66

<----------  END TRANSMISSION  ---------->



<---------- BEGIN TRANSMISSION ---------->

GOT REPLY: HEYY$GPGGA,171141.000,4025.3187,N,07957.0013,W,2,10,0.89,241.1,M,-3A,171142.000,4025.

HEADER CONFIRMED

PACKET CONTAINS NMEA DATA

SENDING PACKET... DONE!

RSSI: -66

<----------  END TRANSMISSION  ---------->



<---------- BEGIN TRANSMISSION ---------->

GOT REPLY: HEYY$GPGGA,171145.000,4025.3214,N,07957.0033,W,2,10,0.89,240.6,M,-300,4025.3223,N,079

HEADER CONFIRMED

PACKET CONTAINS NMEA DATA

SENDING PACKET... DONE!

RSSI: -77

<----------  END TRANSMISSION  ---------->



<---------- BEGIN TRANSMISSION ---------->

GOT REPLY: HEYY$GPGGA,171149.000,4025.3247,N,07957.0051,W,2,10,0.89,240.0,M,-3GPGGA,171150.000,4

HEADER CONFIRMED

PACKET CONTAINS NMEA DATA

SENDING PACKET... DONE!

RSSI: -70

<----------  END TRANSMISSION  ---------->



<---------- BEGIN TRANSMISSION ---------->

GOT REPLY: HEYY$GPGGA,171153.000,4025.3271,N,07957.0072,W,2,10,0.89,239.9,M,-30,0.89,239.9,M,-33

HEADER CONFIRMED

PACKET CONTAINS NMEA DATA

SENDING PACKET... DONE!

RSSI: -74

<----------  END TRANSMISSION  ---------->



<---------- BEGIN TRANSMISSION ---------->

GOT REPLY: HEYY$GPGGA,171157.000,4025.3297,N,07957.0093,W,2,10,0.89,240.0,M,-3,4025.3304,N,07957

HEADER CONFIRMED

PACKET CONTAINS NMEA DATA

SENDING PACKET... DONE!

RSSI: -76

<----------  END TRANSMISSION  ---------->



<---------- BEGIN TRANSMISSION ---------->

GOT REPLY: HEYY$GPGGA,171201.000,4025.3324,N,07957.0112,W,2,10,0.89,240.0,M,-3$GPGGA,171202.000,

HEADER CONFIRMED

PACKET CONTAINS NMEA DATA

SENDING PACKET... DONE!

RSSI: -84

<----------  END TRANSMISSION  ---------->



<---------- BEGIN TRANSMISSION ---------->

GOT REPLY: HEYY$GPGGA,171205.000,4025.3355,N,07957.0128,W,2,10,0.89,240.0,M,-3



HEADER CONFIRMED

PACKET CONTAINS NMEA DATA

SENDING PACKET... DONE!

RSSI: -76

<----------  END TRANSMISSION  ---------->



<---------- BEGIN TRANSMISSION ---------->

GOT REPLY: HEYY$GPGGA,171209.000,4025.3381,N,07957.0148,W,2,10,0.89,240.0,M,-3$GPGGA,171210.000,

HEADER CONFIRMED

PACKET CONTAINS NMEA DATA

SENDING PACKET... DONE!

RSSI: -77

<----------  END TRANSMISSION  ---------->



<---------- BEGIN TRANSMISSION ---------->

GOT REPLY: HEYY$GPGGA,171213.000,4025.3412,N,07957.0164,W,2,10,0.89,240.0,M,-3GA,171214.000,4025

HEADER CONFIRMED

PACKET CONTAINS NMEA DATA

SENDING PACKET... DONE!

RSSI: -80

<----------  END TRANSMISSION  ---------->




<---------- BEGIN TRANSMISSION ---------->

GOT REPLY: HEYY$GPGGA,171225.000,4025.3455,N,07957.0209,W,2,10,0.89,240.1,M,-3$GPGGA,171226.000,

HEADER CONFIRMED

PACKET CONTAINS NMEA DATA

SENDING PACKET... DONE!

RSSI: -77

<----------  END TRANSMISSION  ---------->



<---------- BEGIN TRANSMISSION ---------->

GOT REPLY: HEYY$GPGGA,171229.000,4025.3455,N,07957.0211,W,2,10,0.89,240.0,M,-30,0000*5A



HEADER CONFIRMED

PACKET CONTAINS NMEA DATA

SENDING PACKET... DONE!

RSSI: -86

<----------  END TRANSMISSION  ---------->



<---------- BEGIN TRANSMISSION ---------->

GOT REPLY: HEYY$GPGGA,171233.000,4025.3464,N,07957.0222,W,2,10,0.89,240.1,M,-31234.000,4025.3467

HEADER CONFIRMED

PACKET CONTAINS NMEA DATA

SENDING PACKET... DONE!

RSSI: -81

<----------  END TRANSMISSION  ---------->



<---------- BEGIN TRANSMISSION ---------->

GOT REPLY: HEYY$GPGGA,171237.000,4025.3482,N,07957.0233,W,2,10,0.89,240.4,M,-37957.0236,W,2,10,0

HEADER CONFIRMED

PACKET CONTAINS NMEA DATA

SENDING PACKET... DONE!

RSSI: -83

<----------  END TRANSMISSION  ---------->





<---------- BEGIN TRANSMISSION ---------->

GOT REPLY: HEYY$GPGGA,171301.000,4025.3515,N,07957.0244,W,2,10,0.89,241.2,M,-3$GPGGA,171302.000,

HEADER CONFIRMED

PACKET CONTAINS NMEA DATA

SENDING PACKET... DONE!

RSSI: -88

<----------  END TRANSMISSION  ---------->



<---------- BEGIN TRANSMISSION ---------->

GOT REPLY: HEYY$GPGGA,171305.000,4025.3516,N,07957.0244,W,2,10,0.89,241.1,M,-3520,N,07957.0248,W

HEADER CONFIRMED

PACKET CONTAINS NMEA DATA

SENDING PACKET... DONE!

RSSI: -86

<----------  END TRANSMISSION  ---------->



<---------- BEGIN TRANSMISSION ---------->

GOT REPLY: HEYY$GPGGA,171309.000,4025.3537,N,07957.0264,W,2,10,0.89,240.6,M,-3,240.5,M,-33.0,M,0

HEADER CONFIRMED

PACKET CONTAINS NMEA DATA

SENDING PACKET... DONE!

RSSI: -87

<----------  END TRANSMISSION  ---------->



<---------- BEGIN TRANSMISSION ---------->

GOT REPLY: HEYY$GPGGA,171313.000,4025.3565,N,07957.0286,W,2,10,0.89,240.5,M,-3$GPGGA,171314.000,

HEADER CONFIRMED

PACKET CONTAINS NMEA DATA

SENDING PACKET... DONE!

RSSI: -89

<----------  END TRANSMISSION  ---------->



<---------- BEGIN TRANSMISSION ---------->

GOT REPLY: HEYY$GPGGA,171317.000,4025.3592,N,07957.0305,W,2,10,0.89,240.0,M,-3W,2,10,0.89,239.9,

HEADER CONFIRMED

PACKET CONTAINS NMEA DATA

SENDING PACKET... DONE!

RSSI: -100

<----------  END TRANSMISSION  ---------->



<---------- BEGIN TRANSMISSION ---------->

GOT REPLY: HEYY$GPGGA,171321.000,4025.3618,N,07957.0326,W,2,10,0.89,239.7,M,-37,M,-33.0,M,0000,0

HEADER CONFIRMED

PACKET CONTAINS NMEA DATA

SENDING PACKET... DONE!

RSSI: -88

<----------  END TRANSMISSION  ---------->



<---------- BEGIN TRANSMISSION ---------->

GOT REPLY: HEYY$GPGGA,171325.000,4025.3644,N,07957.0347,W,2,10,0.89,239.7,M,-3$GPGGA,171326.000,

HEADER CONFIRMED

PACKET CONTAINS NMEA DATA

SENDING PACKET... DONE!

RSSI: -80

<----------  END TRANSMISSION  ---------->



<---------- BEGIN TRANSMISSION ---------->

GOT REPLY: HEYY$GPGGA,171329.000,4025.3664,N,07957.0360,W,2,10,0.89,239.5,M,-3$GPGGA,171330.000,

HEADER CONFIRMED

PACKET CONTAINS NMEA DATA

SENDING PACKET... DONE!

RSSI: -80

<----------  END TRANSMISSION  ---------->



<---------- BEGIN TRANSMISSION ---------->

GOT REPLY: HEYY$GPGGA,171333.000,4025.3687,N,07957.0379,W,2,10,0.89,239.2,M,-3



HEADER CONFIRMED

PACKET CONTAINS NMEA DATA

SENDING PACKET... DONE!

RSSI: -87

<----------  END TRANSMISSION  ---------->



<---------- BEGIN TRANSMISSION ---------->

GOT REPLY: HEYY$GPGGA,171337.000,4025.3711,N,07957.0392,W,2,10,0.89,238.5,M,-3$GPGGA,171338.000,

HEADER CONFIRMED

PACKET CONTAINS NMEA DATA

SENDING PACKET... DONE!

RSSI: -80

<----------  END TRANSMISSION  ---------->



<---------- BEGIN TRANSMISSION ---------->

GOT REPLY: HEYY$GPGGA,171341.000,4025.3737,N,07957.0411,W,2,10,0.89,238.2,M,-3,M,-33.0,M,0000,00

HEADER CONFIRMED

PACKET CONTAINS NMEA DATA

SENDING PACKET... DONE!

RSSI: -79

<----------  END TRANSMISSION  ---------->



<---------- BEGIN TRANSMISSION ---------->

GOT REPLY: HEYY$GPGGA,171345.000,4025.3761,N,07957.0422,W,2,10,0.89,237.6,M,-346.000,4025.3768,N

HEADER CONFIRMED

PACKET CONTAINS NMEA DATA

SENDING PACKET... DONE!

RSSI: -90

<----------  END TRANSMISSION  ---------->



<---------- BEGIN TRANSMISSION ---------->

GOT REPLY: HEYY$GPGGA,171349.000,4025.3789,N,07957.0439,W,2,10,0.89,237.4,M,-3$GPGGA,171350.000,

HEADER CONFIRMED

PACKET CONTAINS NMEA DATA

SENDING PACKET... DONE!

RSSI: -86

<----------  END TRANSMISSION  ---------->



<---------- BEGIN TRANSMISSION ---------->

GOT REPLY: HEYY$GPGGA,171353.000,4025.3816,N,07957.0457,W,2,10,0.89,237.4,M,-3$GPGGA,171354.000,

HEADER CONFIRMED

PACKET CONTAINS NMEA DATA

SENDING PACKET... DONE!

RSSI: -89

<----------  END TRANSMISSION  ---------->



<---------- BEGIN TRANSMISSION ---------->

GOT REPLY: HEYY$GPGGA,171357.000,4025.3838,N,07957.0470,W,2,10,0.89,237.2,M,-3.0,M,0000,0000*5B


HEADER CONFIRMED

PACKET CONTAINS NMEA DATA

SENDING PACKET... DONE!

RSSI: -88

<----------  END TRANSMISSION  ---------->



<---------- BEGIN TRANSMISSION ---------->

GOT REPLY: HEYY$GPGGA,171401.000,4025.3865,N,07957.0482,W,2,10,0.89,236.9,M,-3$GPGGA,171402.000,

HEADER CONFIRMED

PACKET CONTAINS NMEA DATA

SENDING PACKET... DONE!

RSSI: -90

<----------  END TRANSMISSION  ---------->



<---------- BEGIN TRANSMISSION ---------->

GOT REPLY: HEYY$GPGGA,171405.000,4025.3894,N,07957.0496,W,2,10,0.89,236.4,M,-3$GPGGA,171406.000,

HEADER CONFIRMED

PACKET CONTAINS NMEA DATA

SENDING PACKET... DONE!

RSSI: -90

<----------  END TRANSMISSION  ---------->



<---------- BEGIN TRANSMISSION ---------->

GOT REPLY: HEYY$GPGGA,171409.000,4025.3923,N,07957.0515,W,2,10,0.89,236.1,M,-3,-33.0,M,0000,0000

HEADER CONFIRMED

PACKET CONTAINS NMEA DATA

SENDING PACKET... DONE!

RSSI: -90

<----------  END TRANSMISSION  ---------->



<---------- BEGIN TRANSMISSION ---------->

GOT REPLY: HEYY$GPGGA,171413.000,4025.3944,N,07957.0527,W,2,10,0.99,235.8,M,-3$GPGGA,171414.000,

HEADER CONFIRMED

PACKET CONTAINS NMEA DATA

SENDING PACKET... DONE!

RSSI: -89

<----------  END TRANSMISSION  ---------->



<---------- BEGIN TRANSMISSION ---------->

GOT REPLY: HEYY$GPGGA,171417.000,4025.3968,N,07957.0542,W,2,10,0.89,235.8,M,-3.0,M,0000,0000*57


HEADER CONFIRMED

PACKET CONTAINS NMEA DATA

SENDING PACKET... DONE!

RSSI: -105

<----------  END TRANSMISSION  ---------->



<---------- BEGIN TRANSMISSION ---------->

GOT REPLY: HEYY$GPGGA,171421.000,4025.3994,N,07957.0561,W,2,10,0.89,235.8,M,-3.000,4025.3999,N,0

HEADER CONFIRMED

PACKET CONTAINS NMEA DATA

SENDING PACKET... DONE!

RSSI: -100

<----------  END TRANSMISSION  ---------->



<---------- BEGIN TRANSMISSION ---------->

GOT REPLY: HEYY$GPGGA,171425.000,4025.4009,N,07957.0568,W,2,10,0.99,235.5,M,-3$GPGGA,171426.000,

HEADER CONFIRMED

PACKET CONTAINS NMEA DATA

SENDING PACKET... DONE!

RSSI: -88

<----------  END TRANSMISSION  ---------->



<---------- BEGIN TRANSMISSION ---------->

GOT REPLY: HEYY$GPGGA,171429.000,4025.4034,N,07957.0585,W,2,10,0.89,235.4,M,-3$GPGGA,171430.000,

HEADER CONFIRMED

PACKET CONTAINS NMEA DATA

SENDING PACKET... DONE!

RSSI: -90

<----------  END TRANSMISSION  ---------->



<---------- BEGIN TRANSMISSION ---------->

GOT REPLY: HEYY$GPGGA,171433.000,4025.4062,N,07957.0603,W,2,10,0.89,235.3,M,-3068,N,07957.0608,W

HEADER CONFIRMED

PACKET CONTAINS NMEA DATA

SENDING PACKET... DONE!

RSSI: -98

<----------  END TRANSMISSION  ---------->



<---------- BEGIN TRANSMISSION ---------->

GOT REPLY: HEYY$GPGGA,171439.000,4025.4087,N,07957.0619,W,2,10,0.99,234.7,M,-3$GPGGA,171440.000,

HEADER CONFIRMED

PACKET CONTAINS NMEA DATA

SENDING PACKET... DONE!

RSSI: -89

<----------  END TRANSMISSION  ---------->



<---------- BEGIN TRANSMISSION ---------->

GOT REPLY: HEYY$GPGGA,171443.000,4025.4085,N,07957.0620,W,2,10,0.89,235.2,M,-3$GPGGA,171444.000,

HEADER CONFIRMED

PACKET CONTAINS NMEA DATA

SENDING PACKET... DONE!

RSSI: -99

<----------  END TRANSMISSION  ---------->



<---------- BEGIN TRANSMISSION ---------->

GOT REPLY: HEYY$GPGGA,171453.000,4025.4113,N,07957.0644,W,2,09,0.90,235.9,M,-3$GPGGA,171454.000,

HEADER CONFIRMED

PACKET CONTAINS NMEA DATA

SENDING PACKET... DONE!

RSSI: -97

<----------  END TRANSMISSION  ---------->



<---------- BEGIN TRANSMISSION ---------->

GOT REPLY: HEYY$GPGGA,171457.000,4025.4110,N,07957.0646,W,2,10,0.89,235.9,M,-389,235.9,M,-33.0,M

HEADER CONFIRMED

PACKET CONTAINS NMEA DATA

SENDING PACKET... DONE!

RSSI: -91

<----------  END TRANSMISSION  ---------->



<---------- BEGIN TRANSMISSION ---------->

GOT REPLY: HEYY$GPGGA,171501.000,4025.4110,N,07957.0648,W,2,10,0.89,235.9,M,-3-33.0,M,0000,0000*

HEADER CONFIRMED

PACKET CONTAINS NMEA DATA

SENDING PACKET... DONE!

RSSI: -101

<----------  END TRANSMISSION  ---------->



<---------- BEGIN TRANSMISSION ---------->

GOT REPLY: HEYY$GPGGA,171511.000,4025.4152,N,07957.0675,W,2,10,0.98,235.9,M,-3$GPGGA,171512.000,

HEADER CONFIRMED

PACKET CONTAINS NMEA DATA

SENDING PACKET... DONE!

RSSI: -91

<----------  END TRANSMISSION  ---------->



<---------- BEGIN TRANSMISSION ---------->

GOT REPLY: HEYY$GPGGA,171515.000,4025.4151,N,07957.0675,W,2,10,0.89,235.8,M,-3$GPGGA,171516.000,

HEADER CONFIRMED

PACKET CONTAINS NMEA DATA

SENDING PACKET... DONE!

RSSI: -100

<----------  END TRANSMISSION  ---------->



<---------- BEGIN TRANSMISSION ---------->

GOT REPLY: HEYY$GPGGA,171519.000,4025.4178,N,07957.0683,W,2,10,0.89,235.7,M,-30*51



HEADER CONFIRMED

PACKET CONTAINS NMEA DATA

SENDING PACKET... DONE!

RSSI: -90

<----------  END TRANSMISSION  ---------->



<---------- BEGIN TRANSMISSION ---------->

GOT REPLY: HEYY$GPGGA,171523.000,4025.4208,N,07957.0695,W,2,10,0.89,235.8,M,-3$GPGGA,171524.000,

HEADER CONFIRMED

PACKET CONTAINS NMEA DATA

SENDING PACKET... DONE!

RSSI: -99

<----------  END TRANSMISSION  ---------->



<---------- BEGIN TRANSMISSION ---------->

GOT REPLY: HEYY$GPGGA,171527.000,4025.4232,N,07957.0709,W,2,10,0.98,235.4,M,-3957.0710,W,2,10,0.

HEADER CONFIRMED

PACKET CONTAINS NMEA DATA

SENDING PACKET... DONE!

RSSI: -104

<----------  END TRANSMISSION  ---------->



<---------- BEGIN TRANSMISSION ---------->

GOT REPLY: HEYY$GPGGA,171531.000,4025.4256,N,07957.0725,W,2,10,0.89,234.9,M,-3$GPGGA,171532.000,

HEADER CONFIRMED

PACKET CONTAINS NMEA DATA

SENDING PACKET... DONE!

RSSI: -98

<----------  END TRANSMISSION  ---------->



<---------- BEGIN TRANSMISSION ---------->

GOT REPLY: HEYY$GPGGA,171541.000,4025.4307,N,07957.0756,W,2,10,0.89,233.3,M,-3$GPGGA,171542.000,

HEADER CONFIRMED

PACKET CONTAINS NMEA DATA

SENDING PACKET... DONE!

RSSI: -105

<----------  END TRANSMISSION  ---------->



<---------- BEGIN TRANSMISSION ---------->

GOT REPLY: HEYY$GPGGA,171551.000,4025.4323,N,07957.0773,W,2,10,0.89,233.0,M,-3$GPGGA,171552.000,

HEADER CONFIRMED

PACKET CONTAINS NMEA DATA

SENDING PACKET... DONE!

RSSI: -106

<----------  END TRANSMISSION  ---------->



<---------- BEGIN TRANSMISSION ---------->

GOT REPLY: HEYY$GPGGA,171601.000,4025.4357,N,07957.0812,W,2,10,0.89,234.8,M,-3$GPGGA,171602.000,

HEADER CONFIRMED

PACKET CONTAINS NMEA DATA

SENDING PACKET... DONE!

RSSI: -103

<----------  END TRANSMISSION  ---------->



<---------- BEGIN TRANSMISSION ---------->

GOT REPLY: HEYY$GPGGA,171605.000,4025.4360,N,07957.0827,W,2,10,0.89,235.2,M,-3,M,0000,0000*57



HEADER CONFIRMED

PACKET CONTAINS NMEA DATA

SENDING PACKET... DONE!

RSSI: -101

<----------  END TRANSMISSION  ---------->



<---------- BEGIN TRANSMISSION ---------->

GOT REPLY: HEYY$GPGGA,171609.000,4025.4385,N,07957.0848,W,2,10,0.89,235.3,M,-30,4025.4392,N,0795

HEADER CONFIRMED

PACKET CONTAINS NMEA DATA

SENDING PACKET... DONE!

RSSI: -105

<----------  END TRANSMISSION  ---------->



<---------- BEGIN TRANSMISSION ---------->

GOT REPLY: HEYY$GPGGA,171613.000,4025.4413,N,07957.0864,W,2,10,0.89,235.3,M,-37.0867,W,2,10,0.89

HEADER CONFIRMED

PACKET CONTAINS NMEA DATA

SENDING PACKET... DONE!

RSSI: -97

<----------  END TRANSMISSION  ---------->



<---------- BEGIN TRANSMISSION ---------->

GOT REPLY: HEYY$GPGGA,171618.000,4025.4444,N,07957.0883,W,2,10,0.89,234.8,M,-3$GPGGA,171620.000,

HEADER CONFIRMED

PACKET CONTAINS NMEA DATA

SENDING PACKET... DONE!

RSSI: -99

<----------  END TRANSMISSION  ---------->



<---------- BEGIN TRANSMISSION ---------->

GOT REPLY: HEYY$GPGGA,171623.000,4025.4474,N,07957.0893,W,2,10,0.98,234.7,M,-3$GPGGA,171624.000,

HEADER CONFIRMED

PACKET CONTAINS NMEA DATA

SENDING PACKET... DONE!

RSSI: -100

<----------  END TRANSMISSION  ---------->



<---------- BEGIN TRANSMISSION ---------->

GOT REPLY: HEYY$GPGGA,171627.000,4025.4503,N,07957.0909,W,2,10,0.89,234.1,M,-3,234.0,M,-33.0,M,0

HEADER CONFIRMED

PACKET CONTAINS NMEA DATA

SENDING PACKET... DONE!

RSSI: -98

<----------  END TRANSMISSION  ---------->




<---------- BEGIN TRANSMISSION ---------->

GOT REPLY: HEYY$GPGGA,171638.000,4025.4559,N,07957.0957,W,2,10,0.98,233.8,M,-328,N,0.51,K,D*0A



HEADER CONFIRMED

PACKET CONTAINS NMEA DATA

SENDING PACKET... DONE!

RSSI: -98

<----------  END TRANSMISSION  ---------->



<---------- BEGIN TRANSMISSION ---------->

GOT REPLY: HEYY$GPGGA,171640.000,4025.4559,N,07957.0963,W,2,10,0.88,234.1,M,-3$GPGGA,171642.000,

HEADER CONFIRMED

PACKET CONTAINS NMEA DATA

SENDING PACKET... DONE!

RSSI: -91

<----------  END TRANSMISSION  ---------->



<---------- BEGIN TRANSMISSION ---------->

GOT REPLY: HEYY$GPGGA,171645.000,4025.4558,N,07957.0962,W,2,10,0.88,234.1,M,-3$GPGGA,171646.000,

HEADER CONFIRMED

PACKET CONTAINS NMEA DATA

SENDING PACKET... DONE!

RSSI: -100

<----------  END TRANSMISSION  ---------->



<---------- BEGIN TRANSMISSION ---------->

GOT REPLY: HEYY$GPGGA,171649.000,4025.4577,N,07957.0977,W,2,10,0.88,234.5,M,-32,10,0.88,234.6,M,

HEADER CONFIRMED

PACKET CONTAINS NMEA DATA

SENDING PACKET... DONE!

RSSI: -104

<----------  END TRANSMISSION  ---------->




<---------- BEGIN TRANSMISSION ---------->

GOT REPLY: HEYY$GPGGA,171701.000,4025.4654,N,07957.1041,W,2,10,0.88,235.5,M,-3$GPGGA,171702.000,

HEADER CONFIRMED

PACKET CONTAINS NMEA DATA

SENDING PACKET... DONE!

RSSI: -101

<----------  END TRANSMISSION  ---------->



<---------- BEGIN TRANSMISSION ---------->

GOT REPLY: HEYY$GPGGA,171711.000,4025.4693,N,07957.1075,W,2,10,0.88,235.9,M,-3$GPGGA,171712.000,

HEADER CONFIRMED

PACKET CONTAINS NMEA DATA

SENDING PACKET... DONE!

RSSI: -100

<----------  END TRANSMISSION  ---------->



<---------- BEGIN TRANSMISSION ---------->

GOT REPLY: HEYY$GPGGA,171721.000,4025.4734,N,07957.1119,W,2,10,0.88,236.3,M,-3$GPGGA,171722.000,

HEADER CONFIRMED

PACKET CONTAINS NMEA DATA

SENDING PACKET... DONE!

RSSI: -97

<----------  END TRANSMISSION  ---------->



<---------- BEGIN TRANSMISSION ---------->

GOT REPLY: HEYY$GPGGA,171725.000,4025.4734,N,07957.1120,W,2,10,0.88,236.1,M,-30,4025.4735,N,0795

HEADER CONFIRMED

PACKET CONTAINS NMEA DATA

SENDING PACKET... DONE!

RSSI: -96

<----------  END TRANSMISSION  ---------->



<---------- BEGIN TRANSMISSION ---------->

GOT REPLY: HEYY$GPGGA,171729.000,4025.4753,N,07957.1128,W,2,10,0.88,235.7,M,-3,2,10,0.88,235.7,M

HEADER CONFIRMED

PACKET CONTAINS NMEA DATA

SENDING PACKET... DONE!

RSSI: -91

<----------  END TRANSMISSION  ---------->



<---------- BEGIN TRANSMISSION ---------->

GOT REPLY: HEYY$GPGGA,171733.000,4025.4784,N,07957.1141,W,2,10,0.88,235.5,M,-3$GPGGA,171734.000,

HEADER CONFIRMED

PACKET CONTAINS NMEA DATA

SENDING PACKET... DONE!

RSSI: -98

<----------  END TRANSMISSION  ---------->



<---------- BEGIN TRANSMISSION ---------->

GOT REPLY: HEYY$GPGGA,171737.000,4025.4798,N,07957.1141,W,2,10,0.98,235.2,M,-33.0,M,0000,0000*56

HEADER CONFIRMED

PACKET CONTAINS NMEA DATA

SENDING PACKET... DONE!

RSSI: -105

<----------  END TRANSMISSION  ---------->






<---------- BEGIN TRANSMISSION ---------->

GOT REPLY: HEYY$GPGGA,171811.000,4025.4761,N,07957.1082,W,2,10,0.88,233.7,M,-3$GPGGA,171812.000,

HEADER CONFIRMED

PACKET CONTAINS NMEA DATA

SENDING PACKET... DONE!

RSSI: -104

<----------  END TRANSMISSION  ---------->




<---------- BEGIN TRANSMISSION ---------->

GOT REPLY: HEYY$GPGGA,171828.000,4025.4670,N,07957.1022,W,2,10,0.88,233.5,M,-3,151.39,T,,M,2.15,

HEADER CONFIRMED

PACKET CONTAINS NMEA DATA

SENDING PACKET... DONE!

RSSI: -101

<----------  END TRANSMISSION  ---------->



<---------- BEGIN TRANSMISSION ---------->

GOT REPLY: HEYY$GPGGA,171830.000,4025.4652,N,07957.1013,W,2,10,0.88,233.6,M,-3$GPGGA,171832.000,

HEADER CONFIRMED

PACKET CONTAINS NMEA DATA

SENDING PACKET... DONE!

RSSI: -101

<----------  END TRANSMISSION  ---------->



<---------- BEGIN TRANSMISSION ---------->

GOT REPLY: HEYY$GPGGA,171841.000,4025.4564,N,07957.0965,W,2,10,0.88,234.3,M,-3$GPGGA,171842.000,

HEADER CONFIRMED

PACKET CONTAINS NMEA DATA

SENDING PACKET... DONE!

RSSI: -104

<----------  END TRANSMISSION  ---------->



<---------- BEGIN TRANSMISSION ---------->

GOT REPLY: HEYY$GPGGA,171845.000,4025.4545,N,07957.0951,W,2,10,0.88,234.4,M,-3$GPGGA,171846.000,

HEADER CONFIRMED

PACKET CONTAINS NMEA DATA

SENDING PACKET... DONE!

RSSI: -100

<----------  END TRANSMISSION  ---------->



<---------- BEGIN TRANSMISSION ---------->

GOT REPLY: HEYY$GPGGA,171849.000,4025.4517,N,07957.0930,W,2,10,0.88,234.8,M,-3$GPGGA,171850.000,

HEADER CONFIRMED

PACKET CONTAINS NMEA DATA

SENDING PACKET... DONE!

RSSI: -99

<----------  END TRANSMISSION  ---------->



<---------- BEGIN TRANSMISSION ---------->

GOT REPLY: HEYY$GPGGA,171853.000,4025.4484,N,07957.0913,W,2,10,0.88,234.8,M,-388,234.9,M,-33.0,M

HEADER CONFIRMED

PACKET CONTAINS NMEA DATA

SENDING PACKET... DONE!

RSSI: -100

<----------  END TRANSMISSION  ---------->



<---------- BEGIN TRANSMISSION ---------->

GOT REPLY: HEYY$GPGGA,171857.000,4025.4453,N,07957.0894,W,2,10,0.88,234.8,M,-3$GPGGA,171858.000,

HEADER CONFIRMED

PACKET CONTAINS NMEA DATA

SENDING PACKET... DONE!

RSSI: -100

<----------  END TRANSMISSION  ---------->




<---------- BEGIN TRANSMISSION ---------->

GOT REPLY: HEYY$GPGGA,171908.000,4025.4368,N,07957.0851,W,2,10,0.88,234.7,M,-3$GPGGA,171910.000,

HEADER CONFIRMED

PACKET CONTAINS NMEA DATA

SENDING PACKET... DONE!

RSSI: -88

<----------  END TRANSMISSION  ---------->



<---------- BEGIN TRANSMISSION ---------->

GOT REPLY: HEYY$GPGGA,171913.000,4025.4359,N,07957.0848,W,2,09,1.09,234.9,M,-3$GPGGA,171914.000,

HEADER CONFIRMED

PACKET CONTAINS NMEA DATA

SENDING PACKET... DONE!

RSSI: -89

<----------  END TRANSMISSION  ---------->



<---------- BEGIN TRANSMISSION ---------->

GOT REPLY: HEYY$GPGGA,171917.000,4025.4331,N,07957.0831,W,2,09,1.09,235.0,M,-35C



HEADER CONFIRMED

PACKET CONTAINS NMEA DATA

SENDING PACKET... DONE!

RSSI: -89

<----------  END TRANSMISSION  ---------->



<---------- BEGIN TRANSMISSION ---------->

GOT REPLY: HEYY$GPGGA,171921.000,4025.4301,N,07957.0810,W,2,10,0.88,235.1,M,-3.4293,N,07957.0805

HEADER CONFIRMED

PACKET CONTAINS NMEA DATA

SENDING PACKET... DONE!

RSSI: -98

<----------  END TRANSMISSION  ---------->



<---------- BEGIN TRANSMISSION ---------->

GOT REPLY: HEYY$GPGGA,171925.000,4025.4274,N,07957.0789,W,2,10,0.88,235.3,M,-3$GPGGA,171926.000,

HEADER CONFIRMED

PACKET CONTAINS NMEA DATA

SENDING PACKET... DONE!

RSSI: -99

<----------  END TRANSMISSION  ---------->



<---------- BEGIN TRANSMISSION ---------->

GOT REPLY: HEYY$GPGGA,171929.000,4025.4246,N,07957.0767,W,2,10,0.88,235.8,M,-30.000,4025.4239,N,

HEADER CONFIRMED

PACKET CONTAINS NMEA DATA

SENDING PACKET... DONE!

RSSI: -99

<----------  END TRANSMISSION  ---------->



<---------- BEGIN TRANSMISSION ---------->

GOT REPLY: HEYY$GPGGA,171933.000,4025.4218,N,07957.0746,W,2,10,0.88,236.0,M,-3740,W,2,10,0.88,23

HEADER CONFIRMED

PACKET CONTAINS NMEA DATA

SENDING PACKET... DONE!

RSSI: -89

<----------  END TRANSMISSION  ---------->



<---------- BEGIN TRANSMISSION ---------->

GOT REPLY: HEYY$GPGGA,171937.000,4025.4191,N,07957.0726,W,2,10,0.88,236.2,M,-3.0721,W,2,10,0.88,

HEADER CONFIRMED

PACKET CONTAINS NMEA DATA

SENDING PACKET... DONE!

RSSI: -99

<----------  END TRANSMISSION  ---------->




<---------- BEGIN TRANSMISSION ---------->

GOT REPLY: HEYY$GPGGA,171954.000,4025.4093,N,07957.0657,W,2,10,0.88,237.6,M,-3237.6,M,-33.0,M,00

HEADER CONFIRMED

PACKET CONTAINS NMEA DATA

SENDING PACKET... DONE!

RSSI: -98

<----------  END TRANSMISSION  ---------->



<---------- BEGIN TRANSMISSION ---------->

GOT REPLY: HEYY$GPGGA,171958.000,4025.4095,N,07957.0657,W,2,10,0.88,237.7,M,-3$GPGGA,171959.000,

HEADER CONFIRMED

PACKET CONTAINS NMEA DATA

SENDING PACKET... DONE!

RSSI: -97

<----------  END TRANSMISSION  ---------->



<---------- BEGIN TRANSMISSION ---------->

GOT REPLY: HEYY$GPGGA,172002.000,4025.4074,N,07957.0643,W,2,10,0.88,237.9,M,-30,0000*51



HEADER CONFIRMED

PACKET CONTAINS NMEA DATA

SENDING PACKET... DONE!

RSSI: -96

<----------  END TRANSMISSION  ---------->



<---------- BEGIN TRANSMISSION ---------->

GOT REPLY: HEYY$GPGGA,172006.000,4025.4047,N,07957.0622,W,2,10,0.88,238.1,M,-3$GPGGA,172007.000,

HEADER CONFIRMED

PACKET CONTAINS NMEA DATA

SENDING PACKET... DONE!

RSSI: -102

<----------  END TRANSMISSION  ---------->



<---------- BEGIN TRANSMISSION ---------->

GOT REPLY: HEYY$GPGGA,172010.000,4025.4016,N,07957.0598,W,2,10,0.88,238.4,M,-300*5A



HEADER CONFIRMED

PACKET CONTAINS NMEA DATA

SENDING PACKET... DONE!

RSSI: -104

<----------  END TRANSMISSION  ---------->



<---------- BEGIN TRANSMISSION ---------->

GOT REPLY: HEYY$GPGGA,172014.000,4025.3984,N,07957.0578,W,2,10,0.88,238.4,M,-3$GPGGA,172015.000,

HEADER CONFIRMED

PACKET CONTAINS NMEA DATA

SENDING PACKET... DONE!

RSSI: -97

<----------  END TRANSMISSION  ---------->



<---------- BEGIN TRANSMISSION ---------->

GOT REPLY: HEYY$GPGGA,172018.000,4025.3957,N,07957.0555,W,2,10,0.88,238.5,M,-30,0.88,238.5,M,-33

HEADER CONFIRMED

PACKET CONTAINS NMEA DATA

SENDING PACKET... DONE!

RSSI: -96

<----------  END TRANSMISSION  ---------->



<---------- BEGIN TRANSMISSION ---------->

GOT REPLY: HEYY$GPGGA,172022.000,4025.3929,N,07957.0533,W,2,10,0.88,238.4,M,-31,N,07957.0529,W,2

HEADER CONFIRMED

PACKET CONTAINS NMEA DATA

SENDING PACKET... DONE!

RSSI: -99

<----------  END TRANSMISSION  ---------->



<---------- BEGIN TRANSMISSION ---------->

GOT REPLY: HEYY$GPGGA,172026.000,4025.3903,N,07957.0521,W,2,10,0.88,238.7,M,-3000,4025.3896,N,07

HEADER CONFIRMED

PACKET CONTAINS NMEA DATA

SENDING PACKET... DONE!

RSSI: -98

<----------  END TRANSMISSION  ---------->



<---------- BEGIN TRANSMISSION ---------->

GOT REPLY: HEYY$GPGGA,172030.000,4025.3875,N,07957.0501,W,2,10,0.88,239.1,M,-3,4025.3868,N,07957

HEADER CONFIRMED

PACKET CONTAINS NMEA DATA

SENDING PACKET... DONE!

RSSI: -92

<----------  END TRANSMISSION  ---------->




<---------- BEGIN TRANSMISSION ---------->

GOT REPLY: HEYY$GPGGA,172043.000,4025.3795,N,07957.0448,W,2,10,0.88,240.4,M,-3$GPGGA,172045.000,

HEADER CONFIRMED

PACKET CONTAINS NMEA DATA

SENDING PACKET... DONE!

RSSI: -88

<----------  END TRANSMISSION  ---------->



<---------- BEGIN TRANSMISSION ---------->

GOT REPLY: HEYY$GPGGA,172048.000,4025.3763,N,07957.0433,W,2,10,0.88,241.2,M,-3172049.000,4025.37

HEADER CONFIRMED

PACKET CONTAINS NMEA DATA

SENDING PACKET... DONE!

RSSI: -82

<----------  END TRANSMISSION  ---------->



<---------- BEGIN TRANSMISSION ---------->

GOT REPLY: HEYY$GPGGA,172052.000,4025.3731,N,07957.0414,W,2,10,0.88,241.6,M,-3$GPGGA,172053.000,

HEADER CONFIRMED

PACKET CONTAINS NMEA DATA

SENDING PACKET... DONE!

RSSI: -76

<----------  END TRANSMISSION  ---------->



<---------- BEGIN TRANSMISSION ---------->

GOT REPLY: HEYY$GPGGA,172056.000,4025.3702,N,07957.0394,W,2,09,1.09,241.8,M,-3GPGGA,172057.000,4

HEADER CONFIRMED

PACKET CONTAINS NMEA DATA

SENDING PACKET... DONE!

RSSI: -76

<----------  END TRANSMISSION  ---------->



<---------- BEGIN TRANSMISSION ---------->

GOT REPLY: HEYY$GPGGA,172100.000,4025.3674,N,07957.0374,W,2,10,0.88,242.0,M,-3N,07957.0368,W,2,1

HEADER CONFIRMED

PACKET CONTAINS NMEA DATA

SENDING PACKET... DONE!

RSSI: -84

<----------  END TRANSMISSION  ---------->



<---------- BEGIN TRANSMISSION ---------->

GOT REPLY: HEYY$GPGGA,172104.000,4025.3645,N,07957.0352,W,2,10,0.88,242.2,M,-3$GPGGA,172105.000,

HEADER CONFIRMED

PACKET CONTAINS NMEA DATA

SENDING PACKET... DONE!

RSSI: -78

<----------  END TRANSMISSION  ---------->



<---------- BEGIN TRANSMISSION ---------->

GOT REPLY: HEYY$GPGGA,172108.000,4025.3616,N,07957.0329,W,2,10,0.88,242.2,M,-3-33.0,M,0000,0000*

HEADER CONFIRMED

PACKET CONTAINS NMEA DATA

SENDING PACKET... DONE!

RSSI: -82

<----------  END TRANSMISSION  ---------->



<---------- BEGIN TRANSMISSION ---------->

GOT REPLY: HEYY$GPGGA,172112.000,4025.3587,N,07957.0306,W,2,10,0.88,242.6,M,-3.000,4025.3579,N,0

HEADER CONFIRMED

PACKET CONTAINS NMEA DATA

SENDING PACKET... DONE!

RSSI: -82

<----------  END TRANSMISSION  ---------->



<---------- BEGIN TRANSMISSION ---------->

GOT REPLY: HEYY$GPGGA,172116.000,4025.3557,N,07957.0287,W,2,10,0.88,243.1,M,-3$GPGGA,172117.000,

HEADER CONFIRMED

PACKET CONTAINS NMEA DATA

SENDING PACKET... DONE!

RSSI: -76

<----------  END TRANSMISSION  ---------->



<---------- BEGIN TRANSMISSION ---------->

GOT REPLY: HEYY$GPGGA,172120.000,4025.3528,N,07957.0270,W,2,09,1.09,243.1,M,-3,172121.000,4025.3

HEADER CONFIRMED

PACKET CONTAINS NMEA DATA

SENDING PACKET... DONE!

RSSI: -86

<----------  END TRANSMISSION  ---------->



<---------- BEGIN TRANSMISSION ---------->

GOT REPLY: HEYY$GPGGA,172124.000,4025.3501,N,07957.0255,W,2,09,1.09,243.0,M,-3$GPGGA,172125.000,

HEADER CONFIRMED

PACKET CONTAINS NMEA DATA

SENDING PACKET... DONE!

RSSI: -80

<----------  END TRANSMISSION  ---------->



<---------- BEGIN TRANSMISSION ---------->

GOT REPLY: HEYY$GPGGA,172128.000,4025.3470,N,07957.0243,W,2,10,0.88,243.0,M,-3M,-33.0,M,0000,000

HEADER CONFIRMED

PACKET CONTAINS NMEA DATA

SENDING PACKET... DONE!

RSSI: -82

<----------  END TRANSMISSION  ---------->



<---------- BEGIN TRANSMISSION ---------->

GOT REPLY: HEYY$GPGGA,172132.000,4025.3441,N,07957.0227,W,2,10,0.88,243.0,M,-34025.3434,N,07957.

HEADER CONFIRMED

PACKET CONTAINS NMEA DATA

SENDING PACKET... DONE!

RSSI: -76

<----------  END TRANSMISSION  ---------->



<---------- BEGIN TRANSMISSION ---------->

GOT REPLY: HEYY$GPGGA,172136.000,4025.3411,N,07957.0211,W,2,10,0.88,243.5,M,-3404,N,07957.0207,W

HEADER CONFIRMED

PACKET CONTAINS NMEA DATA

SENDING PACKET... DONE!

RSSI: -70

<----------  END TRANSMISSION  ---------->



<---------- BEGIN TRANSMISSION ---------->

GOT REPLY: HEYY$GPGGA,172140.000,4025.3381,N,07957.0196,W,2,10,0.88,243.8,M,-3000,4025.3375,N,07

HEADER CONFIRMED

PACKET CONTAINS NMEA DATA

SENDING PACKET... DONE!

RSSI: -86

<----------  END TRANSMISSION  ---------->



<---------- BEGIN TRANSMISSION ---------->

GOT REPLY: HEYY$GPGGA,172144.000,4025.3357,N,07957.0178,W,2,10,0.88,244.4,M,-3$GPGGA,172145.000,

HEADER CONFIRMED

PACKET CONTAINS NMEA DATA

SENDING PACKET... DONE!

RSSI: -71

<----------  END TRANSMISSION  ---------->



<---------- BEGIN TRANSMISSION ---------->

GOT REPLY: HEYY$GPGGA,172148.000,4025.3328,N,07957.0163,W,2,10,0.88,245.0,M,-30.88,245.1,M,-33.0

HEADER CONFIRMED

PACKET CONTAINS NMEA DATA

SENDING PACKET... DONE!

RSSI: -70

<----------  END TRANSMISSION  ---------->



<---------- BEGIN TRANSMISSION ---------->

GOT REPLY: HEYY$GPGGA,172152.000,4025.3303,N,07957.0145,W,2,10,0.88,245.0,M,-3GGA,172153.000,402

HEADER CONFIRMED

PACKET CONTAINS NMEA DATA

SENDING PACKET... DONE!

RSSI: -78

<----------  END TRANSMISSION  ---------->



<---------- BEGIN TRANSMISSION ---------->

GOT REPLY: HEYY$GPGGA,172156.000,4025.3278,N,07957.0119,W,2,10,0.88,245.2,M,-3$GPGGA,172157.000,

HEADER CONFIRMED

PACKET CONTAINS NMEA DATA

SENDING PACKET... DONE!

RSSI: -73

<----------  END TRANSMISSION  ---------->



<---------- BEGIN TRANSMISSION ---------->

GOT REPLY: HEYY$GPGGA,172200.000,4025.3248,N,07957.0102,W,2,10,0.88,245.8,M,-310,0.88,245.9,M,-3

HEADER CONFIRMED

PACKET CONTAINS NMEA DATA

SENDING PACKET... DONE!

RSSI: -71

<----------  END TRANSMISSION  ---------->



<---------- BEGIN TRANSMISSION ---------->

GOT REPLY: HEYY$GPGGA,172204.000,4025.3219,N,07957.0082,W,2,10,0.88,246.2,M,-3,246.2,M,-33.0,M,0

HEADER CONFIRMED

PACKET CONTAINS NMEA DATA

SENDING PACKET... DONE!

RSSI: -64

<----------  END TRANSMISSION  ---------->



<---------- BEGIN TRANSMISSION ---------->

GOT REPLY: HEYY$GPGGA,172208.000,4025.3190,N,07957.0063,W,2,10,0.88,246.4,M,-3$GPGGA,172209.000,

HEADER CONFIRMED

PACKET CONTAINS NMEA DATA

SENDING PACKET... DONE!

RSSI: -59

<----------  END TRANSMISSION  ---------->



<---------- BEGIN TRANSMISSION ---------->

GOT REPLY: HEYY$GPGGA,172212.000,4025.3158,N,07957.0046,W,2,10,0.88,246.6,M,-3$GPGGA,172213.000,

HEADER CONFIRMED

PACKET CONTAINS NMEA DATA

SENDING PACKET... DONE!

RSSI: -56

<----------  END TRANSMISSION  ---------->



<---------- BEGIN TRANSMISSION ---------->

GOT REPLY: HEYY$GPGGA,172216.000,4025.3133,N,07957.0028,W,2,10,0.88,246.7,M,-3$GPGGA,172217.000,

HEADER CONFIRMED

PACKET CONTAINS NMEA DATA

SENDING PACKET... DONE!

RSSI: -59

<----------  END TRANSMISSION  ---------->



<---------- BEGIN TRANSMISSION ---------->

GOT REPLY: HEYY$GPGGA,172220.000,4025.3108,N,07957.0009,W,2,10,0.88,246.6,M,-3,M,-33.0,M,0000,00

HEADER CONFIRMED

PACKET CONTAINS NMEA DATA

SENDING PACKET... DONE!

RSSI: -57

<----------  END TRANSMISSION  ---------->



<---------- BEGIN TRANSMISSION ---------->

GOT REPLY: HEYY$GPGGA,172224.000,4025.3082,N,07956.9987,W,2,10,0.88,246.1,M,-3$GPGGA,172225.000,

HEADER CONFIRMED

PACKET CONTAINS NMEA DATA

SENDING PACKET... DONE!

RSSI: -49

<----------  END TRANSMISSION  ---------->



<---------- BEGIN TRANSMISSION ---------->

GOT REPLY: HEYY$GPGGA,172228.000,4025.3065,N,07956.9959,W,2,10,0.88,245.9,M,-3,M,-33.0,M,0000,00

HEADER CONFIRMED

PACKET CONTAINS NMEA DATA

SENDING PACKET... DONE!

RSSI: -43

<----------  END TRANSMISSION  ---------->



<---------- BEGIN TRANSMISSION ---------->

GOT REPLY: HEYY$GPGGA,172232.000,4025.3046,N,07956.9932,W,2,10,0.88,245.7,M,-3$GPGGA,172233.000,

HEADER CONFIRMED

PACKET CONTAINS NMEA DATA

SENDING PACKET... DONE!

RSSI: -38

<----------  END TRANSMISSION  ---------->



<---------- BEGIN TRANSMISSION ---------->

GOT REPLY: HEYY$GPGGA,172236.000,4025.3022,N,07956.9899,W,2,10,0.88,246.0,M,-300,0000*57



HEADER CONFIRMED

PACKET CONTAINS NMEA DATA

SENDING PACKET... DONE!

RSSI: -31

<----------  END TRANSMISSION  ---------->



<---------- BEGIN TRANSMISSION ---------->

GOT REPLY: HEYY$GPGGA,172240.000,4025.2999,N,07956.9879,W,2,10,0.88,246.2,M,-3$GPGGA,172241.000,

HEADER CONFIRMED

PACKET CONTAINS NMEA DATA

SENDING PACKET... DONE!

RSSI: -42

<----------  END TRANSMISSION  ---------->



<---------- BEGIN TRANSMISSION ---------->

GOT REPLY: HEYY$GPGGA,172244.000,4025.2990,N,07956.9875,W,2,10,0.88,246.4,M,-30,4025.2990,N,0795

HEADER CONFIRMED

PACKET CONTAINS NMEA DATA

SENDING PACKET... DONE!

RSSI: -70

<----------  END TRANSMISSION  ---------->



<---------- BEGIN TRANSMISSION ---------->

GOT REPLY: HEYY$GPGGA,172248.000,4025.2989,N,07956.9875,W,2,10,0.97,246.5,M,-3874,W,2,10,0.88,24

HEADER CONFIRMED

PACKET CONTAINS NMEA DATA

SENDING PACKET... DONE!

RSSI: -83

<----------  END TRANSMISSION  ---------->



<---------- BEGIN TRANSMISSION ---------->

GOT REPLY: HEYY$GPGGA,172252.000,4025.2990,N,07956.9875,W,2,10,0.97,246.6,M,-3.9874,W,2,10,0.88,

HEADER CONFIRMED

PACKET CONTAINS NMEA DATA

SENDING PACKET... DONE!

RSSI: -66

<----------  END TRANSMISSION  ---------->



<---------- BEGIN TRANSMISSION ---------->

GOT REPLY: HEYY$GPGGA,172256.000,4025.2989,N,07956.9877,W,2,10,0.88,246.6,M,-3$GPGGA,172257.000,

HEADER CONFIRMED

PACKET CONTAINS NMEA DATA

SENDING PACKET... DONE!

RSSI: -65

<----------  END TRANSMISSION  ---------->



<---------- BEGIN TRANSMISSION ---------->

GOT REPLY: HEYY$GPGGA,172300.000,4025.2988,N,07956.9878,W,2,10,0.88,246.6,M,-3956.9878,W,2,10,0.

HEADER CONFIRMED

PACKET CONTAINS NMEA DATA

SENDING PACKET... DONE!

RSSI: -76

<----------  END TRANSMISSION  ---------->



