

<---------- BEGIN TRANSMISSION ---------->

GOT REPLY: HEYY$GPGGA,163421.000,4025.2959,N,07956.9883,W,1,08,1.18,241.3,M,-3$GPGGA,163422.000,

HEADER CONFIRMED

PACKET CONTAINS NMEA DATA

SENDING PACKET... DONE!

RSSI: -24

<----------  END TRANSMISSION  ---------->



<---------- BEGIN TRANSMISSION ---------->

GOT REPLY: HEYY$GPGGA,163425.000,4025.2959,N,07956.9883,W,1,08,1.18,241.3,M,-3426.000,4025.2959,

HEADER CONFIRMED

PACKET CONTAINS NMEA DATA

SENDING PACKET... DONE!

RSSI: -18

<----------  END TRANSMISSION  ---------->



<---------- BEGIN TRANSMISSION ---------->

GOT REPLY: HEYY$GPGGA,163429.000,4025.2959,N,07956.9883,W,1,08,1.18,241.4,M,-3PGGA,163430.000,40

HEADER CONFIRMED

PACKET CONTAINS NMEA DATA

SENDING PACKET... DONE!

RSSI: -19

<----------  END TRANSMISSION  ---------->



<---------- BEGIN TRANSMISSION ---------->

GOT REPLY: HEYY$GPGGA,163433.000,4025.2959,N,07956.9883,W,1,08,1.18,241.4,M,-3$GPGGA,163434.000,

HEADER CONFIRMED

PACKET CONTAINS NMEA DATA

SENDING PACKET... DONE!

RSSI: -19

<----------  END TRANSMISSION  ---------->



<---------- BEGIN TRANSMISSION ---------->

GOT REPLY: HEYY$GPGGA,163437.000,4025.2960,N,07956.9883,W,1,08,1.18,241.4,M,-3PGGA,163438.000,40

HEADER CONFIRMED

PACKET CONTAINS NMEA DATA

SENDING PACKET... DONE!

RSSI: -22

<----------  END TRANSMISSION  ---------->



<---------- BEGIN TRANSMISSION ---------->

GOT REPLY: HEYY$GPGGA,163441.000,4025.2964,N,07956.9887,W,1,08,1.04,241.6,M,-3163442.000,4025.29

HEADER CONFIRMED

PACKET CONTAINS NMEA DATA

SENDING PACKET... DONE!

RSSI: -42

<----------  END TRANSMISSION  ---------->



<---------- BEGIN TRANSMISSION ---------->

GOT REPLY: HEYY$GPGGA,163445.000,4025.2983,N,07956.9901,W,1,08,1.04,242.3,M,-3$GPGGA,163446.000,

HEADER CONFIRMED

PACKET CONTAINS NMEA DATA

SENDING PACKET... DONE!

RSSI: -44

<----------  END TRANSMISSION  ---------->



<---------- BEGIN TRANSMISSION ---------->

GOT REPLY: HEYY$GPGGA,163449.000,4025.3004,N,07956.9914,W,1,09,0.96,243.0,M,-3A,163450.000,4025.

HEADER CONFIRMED

PACKET CONTAINS NMEA DATA

SENDING PACKET... DONE!

RSSI: -46

<----------  END TRANSMISSION  ---------->



<---------- BEGIN TRANSMISSION ---------->

GOT REPLY: HEYY$GPGGA,163453.000,4025.3026,N,07956.9928,W,1,09,0.96,243.6,M,-3163454.000,4025.30

HEADER CONFIRMED

PACKET CONTAINS NMEA DATA

SENDING PACKET... DONE!

RSSI: -50

<----------  END TRANSMISSION  ---------->



<---------- BEGIN TRANSMISSION ---------->

GOT REPLY: HEYY$GPGGA,163457.000,4025.3048,N,07956.9940,W,1,09,0.96,244.1,M,-3$GPGGA,163458.000,

HEADER CONFIRMED

PACKET CONTAINS NMEA DATA

SENDING PACKET... DONE!

RSSI: -52

<----------  END TRANSMISSION  ---------->



<---------- BEGIN TRANSMISSION ---------->

GOT REPLY: HEYY$GPGGA,163501.000,4025.3070,N,07956.9953,W,1,09,1.12,244.5,M,-3,163502.000,4025.3

HEADER CONFIRMED

PACKET CONTAINS NMEA DATA

SENDING PACKET... DONE!

RSSI: -57

<----------  END TRANSMISSION  ---------->



<---------- BEGIN TRANSMISSION ---------->

GOT REPLY: HEYY$GPGGA,163505.000,4025.3082,N,07956.9961,W,1,10,0.91,244.5,M,-33506.000,4025.3087

HEADER CONFIRMED

PACKET CONTAINS NMEA DATA

SENDING PACKET... DONE!

RSSI: -58

<----------  END TRANSMISSION  ---------->



<---------- BEGIN TRANSMISSION ---------->

GOT REPLY: HEYY$GPGGA,163509.000,4025.3102,N,07956.9973,W,1,10,0.91,244.8,M,-3GGA,163510.000,402

HEADER CONFIRMED

PACKET CONTAINS NMEA DATA

SENDING PACKET... DONE!

RSSI: -58

<----------  END TRANSMISSION  ---------->



<---------- BEGIN TRANSMISSION ---------->

GOT REPLY: HEYY$GPGGA,163513.000,4025.3119,N,07956.9983,W,1,10,0.91,244.9,M,-3$GPGGA,163514.000,

HEADER CONFIRMED

PACKET CONTAINS NMEA DATA

SENDING PACKET... DONE!

RSSI: -66

<----------  END TRANSMISSION  ---------->



<---------- BEGIN TRANSMISSION ---------->

GOT REPLY: HEYY$GPGGA,163523.000,4025.3166,N,07957.0014,W,1,10,0.91,244.9,M,-3$GPGGA,163524.000,

HEADER CONFIRMED

PACKET CONTAINS NMEA DATA

SENDING PACKET... DONE!

RSSI: -63

<----------  END TRANSMISSION  ---------->



<---------- BEGIN TRANSMISSION ---------->

GOT REPLY: HEYY$GPGGA,163527.000,4025.3182,N,07957.0027,W,2,10,0.91,245.0,M,-3$GPGGA,163528.000,

HEADER CONFIRMED

PACKET CONTAINS NMEA DATA

SENDING PACKET... DONE!

RSSI: -64

<----------  END TRANSMISSION  ---------->



<---------- BEGIN TRANSMISSION ---------->

GOT REPLY: HEYY$GPGGA,163531.000,4025.3204,N,07957.0040,W,2,10,0.91,245.1,M,-332.000,4025.3210,N

HEADER CONFIRMED

PACKET CONTAINS NMEA DATA

SENDING PACKET... DONE!

RSSI: -71

<----------  END TRANSMISSION  ---------->



<---------- BEGIN TRANSMISSION ---------->

GOT REPLY: HEYY$GPGGA,163535.000,4025.3225,N,07957.0054,W,2,10,0.91,245.1,M,-3025.3230,N,07957.0

HEADER CONFIRMED

PACKET CONTAINS NMEA DATA

SENDING PACKET... DONE!

RSSI: -64

<----------  END TRANSMISSION  ---------->



<---------- BEGIN TRANSMISSION ---------->

GOT REPLY: HEYY$GPGGA,163539.000,4025.3247,N,07957.0067,W,2,10,0.91,245.1,M,-3540.000,4025.3253,

HEADER CONFIRMED

PACKET CONTAINS NMEA DATA

SENDING PACKET... DONE!

RSSI: -67

<----------  END TRANSMISSION  ---------->



<---------- BEGIN TRANSMISSION ---------->

GOT REPLY: HEYY$GPGGA,163543.000,4025.3267,N,07957.0080,W,2,10,0.91,245.3,M,-3A,163544.000,4025.

HEADER CONFIRMED

PACKET CONTAINS NMEA DATA

SENDING PACKET... DONE!

RSSI: -68

<----------  END TRANSMISSION  ---------->



<---------- BEGIN TRANSMISSION ---------->

GOT REPLY: HEYY$GPGGA,163547.000,4025.3291,N,07957.0094,W,2,10,0.91,245.3,M,-3$GPGGA,163548.000,

HEADER CONFIRMED

PACKET CONTAINS NMEA DATA

SENDING PACKET... DONE!

RSSI: -72

<----------  END TRANSMISSION  ---------->



<---------- BEGIN TRANSMISSION ---------->

GOT REPLY: HEYY$GPGGA,163551.000,4025.3310,N,07957.0107,W,2,10,0.91,245.3,M,-316,N,07957.0111,W,

HEADER CONFIRMED

PACKET CONTAINS NMEA DATA

SENDING PACKET... DONE!

RSSI: -68

<----------  END TRANSMISSION  ---------->



<---------- BEGIN TRANSMISSION ---------->

GOT REPLY: HEYY$GPGGA,163555.000,4025.3333,N,07957.0120,W,2,10,0.91,245.4,M,-36.000,4025.3338,N,

HEADER CONFIRMED

PACKET CONTAINS NMEA DATA

SENDING PACKET... DONE!

RSSI: -70

<----------  END TRANSMISSION  ---------->



<---------- BEGIN TRANSMISSION ---------->

GOT REPLY: HEYY$GPGGA,163559.000,4025.3348,N,07957.0129,W,2,10,0.91,245.3,M,-30.000,4025.3353,N,

HEADER CONFIRMED

PACKET CONTAINS NMEA DATA

SENDING PACKET... DONE!

RSSI: -71

<----------  END TRANSMISSION  ---------->



<---------- BEGIN TRANSMISSION ---------->

GOT REPLY: HEYY$GPGGA,163603.000,4025.3366,N,07957.0143,W,2,10,0.91,245.0,M,-300,4025.3369,N,079

HEADER CONFIRMED

PACKET CONTAINS NMEA DATA

SENDING PACKET... DONE!

RSSI: -83

<----------  END TRANSMISSION  ---------->



<---------- BEGIN TRANSMISSION ---------->

GOT REPLY: HEYY$GPGGA,163607.000,4025.3375,N,07957.0149,W,2,10,0.91,244.8,M,-3$GPGGA,163608.000,

HEADER CONFIRMED

PACKET CONTAINS NMEA DATA

SENDING PACKET... DONE!

RSSI: -71

<----------  END TRANSMISSION  ---------->



<---------- BEGIN TRANSMISSION ---------->

GOT REPLY: HEYY$GPGGA,163611.000,4025.3397,N,07957.0161,W,2,10,0.91,244.5,M,-30,4025.3400,N,0795

HEADER CONFIRMED

PACKET CONTAINS NMEA DATA

SENDING PACKET... DONE!

RSSI: -74

<----------  END TRANSMISSION  ---------->



<---------- BEGIN TRANSMISSION ---------->

GOT REPLY: HEYY$GPGGA,163615.000,4025.3412,N,07957.0170,W,2,10,0.91,244.0,M,-30,4025.3417,N,0795

HEADER CONFIRMED

PACKET CONTAINS NMEA DATA

SENDING PACKET... DONE!

RSSI: -81

<----------  END TRANSMISSION  ---------->



<---------- BEGIN TRANSMISSION ---------->

GOT REPLY: HEYY$GPGGA,163619.000,4025.3432,N,07957.0183,W,2,10,0.91,243.8,M,-3$GPGGA,163620.000,

HEADER CONFIRMED

PACKET CONTAINS NMEA DATA

SENDING PACKET... DONE!

RSSI: -80

<----------  END TRANSMISSION  ---------->



<---------- BEGIN TRANSMISSION ---------->

GOT REPLY: HEYY$GPGGA,163623.000,4025.3453,N,07957.0199,W,2,10,0.91,243.5,M,-3957.0203,W,2,10,0.

HEADER CONFIRMED

PACKET CONTAINS NMEA DATA

SENDING PACKET... DONE!

RSSI: -83

<----------  END TRANSMISSION  ---------->



<---------- BEGIN TRANSMISSION ---------->

GOT REPLY: HEYY$GPGGA,163627.000,4025.3469,N,07957.0212,W,2,10,0.91,243.2,M,-3GA,163628.000,4025

HEADER CONFIRMED

PACKET CONTAINS NMEA DATA

SENDING PACKET... DONE!

RSSI: -76

<----------  END TRANSMISSION  ---------->



<---------- BEGIN TRANSMISSION ---------->

GOT REPLY: HEYY$GPGGA,163631.000,4025.3482,N,07957.0221,W,2,10,0.91,243.0,M,-3GGA,163632.000,402

HEADER CONFIRMED

PACKET CONTAINS NMEA DATA

SENDING PACKET... DONE!

RSSI: -76

<----------  END TRANSMISSION  ---------->



<---------- BEGIN TRANSMISSION ---------->

GOT REPLY: HEYY$GPGGA,163635.000,4025.3502,N,07957.0233,W,2,10,0.91,242.6,M,-3.000,4025.3506,N,0

HEADER CONFIRMED

PACKET CONTAINS NMEA DATA

SENDING PACKET... DONE!

RSSI: -76

<----------  END TRANSMISSION  ---------->



<---------- BEGIN TRANSMISSION ---------->

GOT REPLY: HEYY$GPGGA,163639.000,4025.3516,N,07957.0245,W,2,10,0.91,242.2,M,-30,4025.3522,N,0795

HEADER CONFIRMED

PACKET CONTAINS NMEA DATA

SENDING PACKET... DONE!

RSSI: -84

<----------  END TRANSMISSION  ---------->



<---------- BEGIN TRANSMISSION ---------->

GOT REPLY: HEYY$GPGGA,163643.000,4025.3540,N,07957.0262,W,2,10,0.91,241.8,M,-3000,4025.3544,N,07

HEADER CONFIRMED

PACKET CONTAINS NMEA DATA

SENDING PACKET... DONE!

RSSI: -88

<----------  END TRANSMISSION  ---------->



<---------- BEGIN TRANSMISSION ---------->

GOT REPLY: HEYY$GPGGA,163647.000,4025.3557,N,07957.0274,W,2,10,0.91,241.4,M,-3163648.000,4025.35

HEADER CONFIRMED

PACKET CONTAINS NMEA DATA

SENDING PACKET... DONE!

RSSI: -86

<----------  END TRANSMISSION  ---------->



<---------- BEGIN TRANSMISSION ---------->

GOT REPLY: HEYY$GPGGA,163651.000,4025.3577,N,07957.0292,W,2,10,0.91,241.1,M,-3$GPGGA,163652.000,

HEADER CONFIRMED

PACKET CONTAINS NMEA DATA

SENDING PACKET... DONE!

RSSI: -81

<----------  END TRANSMISSION  ---------->



<---------- BEGIN TRANSMISSION ---------->

GOT REPLY: HEYY$GPGGA,163655.000,4025.3598,N,07957.0305,W,2,10,0.91,240.9,M,-3,M,-33.0,M,0000,00

HEADER CONFIRMED

PACKET CONTAINS NMEA DATA

SENDING PACKET... DONE!

RSSI: -79

<----------  END TRANSMISSION  ---------->



<---------- BEGIN TRANSMISSION ---------->

GOT REPLY: HEYY$GPGGA,163659.000,4025.3619,N,07957.0321,W,2,10,0.91,240.9,M,-3000,4025.3624,N,07

HEADER CONFIRMED

PACKET CONTAINS NMEA DATA

SENDING PACKET... DONE!

RSSI: -82

<----------  END TRANSMISSION  ---------->



<---------- BEGIN TRANSMISSION ---------->

GOT REPLY: HEYY$GPGGA,163703.000,4025.3639,N,07957.0334,W,2,10,0.91,240.5,M,-3GGA,163704.000,402

HEADER CONFIRMED

PACKET CONTAINS NMEA DATA

SENDING PACKET... DONE!

RSSI: -87

<----------  END TRANSMISSION  ---------->



<---------- BEGIN TRANSMISSION ---------->

GOT REPLY: HEYY$GPGGA,163707.000,4025.3662,N,07957.0349,W,2,10,0.91,240.2,M,-3,07957.0352,W,2,10

HEADER CONFIRMED

PACKET CONTAINS NMEA DATA

SENDING PACKET... DONE!

RSSI: -76

<----------  END TRANSMISSION  ---------->



<---------- BEGIN TRANSMISSION ---------->

GOT REPLY: HEYY$GPGGA,163711.000,4025.3684,N,07957.0362,W,2,10,0.91,240.0,M,-3$GPGGA,163712.000,

HEADER CONFIRMED

PACKET CONTAINS NMEA DATA

SENDING PACKET... DONE!

RSSI: -76

<----------  END TRANSMISSION  ---------->



<---------- BEGIN TRANSMISSION ---------->

GOT REPLY: HEYY$GPGGA,163715.000,4025.3689,N,07957.0366,W,2,10,0.91,239.9,M,-30,0.91,239.9,M,-33

HEADER CONFIRMED

PACKET CONTAINS NMEA DATA

SENDING PACKET... DONE!

RSSI: -76

<----------  END TRANSMISSION  ---------->



<---------- BEGIN TRANSMISSION ---------->

GOT REPLY: HEYY$GPGGA,163719.000,4025.3707,N,07957.0380,W,2,10,0.91,239.9,M,-30.000,4025.3712,N,

HEADER CONFIRMED

PACKET CONTAINS NMEA DATA

SENDING PACKET... DONE!

RSSI: -77

<----------  END TRANSMISSION  ---------->



<---------- BEGIN TRANSMISSION ---------->

GOT REPLY: HEYY$GPGGA,163723.000,4025.3729,N,07957.0395,W,2,10,0.91,239.8,M,-3.3735,N,07957.0399

HEADER CONFIRMED

PACKET CONTAINS NMEA DATA

SENDING PACKET... DONE!

RSSI: -88

<----------  END TRANSMISSION  ---------->



<---------- BEGIN TRANSMISSION ---------->

GOT REPLY: HEYY$GPGGA,163727.000,4025.3751,N,07957.0410,W,2,10,0.91,239.4,M,-328.000,4025.3757,N

HEADER CONFIRMED

PACKET CONTAINS NMEA DATA

SENDING PACKET... DONE!

RSSI: -86

<----------  END TRANSMISSION  ---------->



<---------- BEGIN TRANSMISSION ---------->

GOT REPLY: HEYY$GPGGA,163731.000,4025.3773,N,07957.0425,W,2,10,0.91,239.3,M,-3$GPGGA,163732.000,

HEADER CONFIRMED

PACKET CONTAINS NMEA DATA

SENDING PACKET... DONE!

RSSI: -101

<----------  END TRANSMISSION  ---------->



<---------- BEGIN TRANSMISSION ---------->

GOT REPLY: HEYY$GPGGA,163735.000,4025.3791,N,07957.0439,W,2,10,0.91,239.3,M,-3$GPGGA,163736.000,

HEADER CONFIRMED

PACKET CONTAINS NMEA DATA

SENDING PACKET... DONE!

RSSI: -81

<----------  END TRANSMISSION  ---------->



<---------- BEGIN TRANSMISSION ---------->

GOT REPLY: HEYY$GPGGA,163739.000,4025.3813,N,07957.0452,W,2,10,0.91,238.9,M,-3M,0000,0000*5E



HEADER CONFIRMED

PACKET CONTAINS NMEA DATA

SENDING PACKET... DONE!

RSSI: -84

<----------  END TRANSMISSION  ---------->



<---------- BEGIN TRANSMISSION ---------->

GOT REPLY: HEYY$GPGGA,163743.000,4025.3835,N,07957.0467,W,2,10,0.91,238.7,M,-34025.3840,N,07957.

HEADER CONFIRMED

PACKET CONTAINS NMEA DATA

SENDING PACKET... DONE!

RSSI: -88

<----------  END TRANSMISSION  ---------->



<---------- BEGIN TRANSMISSION ---------->

GOT REPLY: HEYY$GPGGA,163751.000,4025.3869,N,07957.0490,W,2,10,0.91,238.3,M,-3$GPGGA,163753.000,

HEADER CONFIRMED

PACKET CONTAINS NMEA DATA

SENDING PACKET... DONE!

RSSI: -89

<----------  END TRANSMISSION  ---------->




<---------- BEGIN TRANSMISSION ---------->

GOT REPLY: HEYY$GPGGA,163810.000,4025.3917,N,07957.0528,W,2,10,0.91,237.2,M,-3$GPGGA,163811.000,

HEADER CONFIRMED

PACKET CONTAINS NMEA DATA

SENDING PACKET... DONE!

RSSI: -90

<----------  END TRANSMISSION  ---------->



<---------- BEGIN TRANSMISSION ---------->

GOT REPLY: HEYY$GPGGA,163814.000,4025.3917,N,07957.0528,W,2,10,0.91,237.2,M,-35.3917,N,07957.052

HEADER CONFIRMED

PACKET CONTAINS NMEA DATA

SENDING PACKET... DONE!

RSSI: -90

<----------  END TRANSMISSION  ---------->



<---------- BEGIN TRANSMISSION ---------->

GOT REPLY: HEYY$GPGGA,163818.000,4025.3931,N,07957.0536,W,2,10,0.91,237.4,M,-3$GPGGA,163819.000,

HEADER CONFIRMED

PACKET CONTAINS NMEA DATA

SENDING PACKET... DONE!

RSSI: -87

<----------  END TRANSMISSION  ---------->



<---------- BEGIN TRANSMISSION ---------->

GOT REPLY: HEYY$GPGGA,163828.000,4025.3958,N,07957.0555,W,2,10,0.91,237.6,M,-3$GPGGA,163829.000,

HEADER CONFIRMED

PACKET CONTAINS NMEA DATA

SENDING PACKET... DONE!

RSSI: -98

<----------  END TRANSMISSION  ---------->




<---------- BEGIN TRANSMISSION ---------->

GOT REPLY: HEYY$GPGGA,163844.000,4025.3996,N,07957.0577,W,2,10,0.91,237.4,M,-3$GPGGA,163845.000,

HEADER CONFIRMED

PACKET CONTAINS NMEA DATA

SENDING PACKET... DONE!

RSSI: -98

<----------  END TRANSMISSION  ---------->



<---------- BEGIN TRANSMISSION ---------->

GOT REPLY: HEYY$GPGGA,163848.000,4025.3996,N,07957.0578,W,2,10,0.91,237.4,M,-3$GPGGA,163849.000,

HEADER CONFIRMED

PACKET CONTAINS NMEA DATA

SENDING PACKET... DONE!

RSSI: -90

<----------  END TRANSMISSION  ---------->



<---------- BEGIN TRANSMISSION ---------->

GOT REPLY: HEYY$GPGGA,163852.000,4025.3996,N,07957.0578,W,2,10,0.97,237.5,M,-3M,0000,0000*57



HEADER CONFIRMED

PACKET CONTAINS NMEA DATA

SENDING PACKET... DONE!

RSSI: -92

<----------  END TRANSMISSION  ---------->



<---------- BEGIN TRANSMISSION ---------->

GOT REPLY: HEYY$GPGGA,163900.000,4025.4034,N,07957.0605,W,2,10,0.91,237.5,M,-3,163901.000,A,4025

HEADER CONFIRMED

PACKET CONTAINS NMEA DATA

SENDING PACKET... DONE!

RSSI: -88

<----------  END TRANSMISSION  ---------->



<---------- BEGIN TRANSMISSION ---------->

GOT REPLY: HEYY$GPGGA,163906.000,4025.4061,N,07957.0625,W,2,10,0.91,237.5,M,-3$GPGGA,163907.000,

HEADER CONFIRMED

PACKET CONTAINS NMEA DATA

SENDING PACKET... DONE!

RSSI: -89

<----------  END TRANSMISSION  ---------->



<---------- BEGIN TRANSMISSION ---------->

GOT REPLY: HEYY$GPGGA,163910.000,4025.4084,N,07957.0639,W,2,10,0.91,236.9,M,-3911.000,4025.4090,

HEADER CONFIRMED

PACKET CONTAINS NMEA DATA

SENDING PACKET... DONE!

RSSI: -90

<----------  END TRANSMISSION  ---------->



<---------- BEGIN TRANSMISSION ---------->

GOT REPLY: HEYY$GPGGA,163914.000,4025.4107,N,07957.0652,W,2,10,0.91,236.6,M,-3$GPGGA,163915.000,

HEADER CONFIRMED

PACKET CONTAINS NMEA DATA

SENDING PACKET... DONE!

RSSI: -91

<----------  END TRANSMISSION  ---------->



<---------- BEGIN TRANSMISSION ---------->

GOT REPLY: HEYY$GPGGA,163918.000,4025.4115,N,07957.0655,W,2,10,0.91,236.8,M,-3,163919.000,4025.4

HEADER CONFIRMED

PACKET CONTAINS NMEA DATA

SENDING PACKET... DONE!

RSSI: -99

<----------  END TRANSMISSION  ---------->



<---------- BEGIN TRANSMISSION ---------->

GOT REPLY: HEYY$GPGGA,163922.000,4025.4140,N,07957.0672,W,2,10,0.91,236.6,M,-3GPGGA,163923.000,4

HEADER CONFIRMED

PACKET CONTAINS NMEA DATA

SENDING PACKET... DONE!

RSSI: -98

<----------  END TRANSMISSION  ---------->



<---------- BEGIN TRANSMISSION ---------->

GOT REPLY: HEYY$GPGGA,163926.000,4025.4166,N,07957.0690,W,2,10,0.91,236.2,M,-3


HEADER CONFIRMED

PACKET CONTAINS NMEA DATA

SENDING PACKET... DONE!

RSSI: -102

<----------  END TRANSMISSION  ---------->



<---------- BEGIN TRANSMISSION ---------->

GOT REPLY: HEYY$GPGGA,163930.000,4025.4171,N,07957.0694,W,2,10,0.91,235.8,M,-3$GPGGA,163931.000,

HEADER CONFIRMED

PACKET CONTAINS NMEA DATA

SENDING PACKET... DONE!

RSSI: -92

<----------  END TRANSMISSION  ---------->



<---------- BEGIN TRANSMISSION ---------->

GOT REPLY: HEYY$GPGGA,163934.000,4025.4186,N,07957.0706,W,2,10,0.91,235.7,M,-3GSA,A,3,18,22,14,3

HEADER CONFIRMED

PACKET CONTAINS NMEA DATA

SENDING PACKET... DONE!

RSSI: -89

<----------  END TRANSMISSION  ---------->




<---------- BEGIN TRANSMISSION ---------->

GOT REPLY: HEYY$GPGGA,163953.000,4025.4241,N,07957.0745,W,2,10,0.91,235.4,M,-3.01,N,0.02,K,D*35


HEADER CONFIRMED

PACKET CONTAINS NMEA DATA

SENDING PACKET... DONE!

RSSI: -103

<----------  END TRANSMISSION  ---------->



<---------- BEGIN TRANSMISSION ---------->

GOT REPLY: HEYY$GPGGA,163955.000,4025.4242,N,07957.0745,W,2,10,0.91,235.4,M,-3$GPGGA,163957.000,

HEADER CONFIRMED

PACKET CONTAINS NMEA DATA

SENDING PACKET... DONE!

RSSI: -107

<----------  END TRANSMISSION  ---------->



<---------- BEGIN TRANSMISSION ---------->

GOT REPLY: HEYY$GPGGA,164006.000,4025.4292,N,07957.0780,W,2,10,0.91,235.4,M,-3$GPGGA,164007.000,

HEADER CONFIRMED

PACKET CONTAINS NMEA DATA

SENDING PACKET... DONE!

RSSI: -100

<----------  END TRANSMISSION  ---------->



<---------- BEGIN TRANSMISSION ---------->

GOT REPLY: HEYY$GPGGA,164016.000,4025.4337,N,07957.0806,W,2,10,0.91,234.6,M,-3$GPGGA,164017.000,

HEADER CONFIRMED

PACKET CONTAINS NMEA DATA

SENDING PACKET... DONE!

RSSI: -98

<----------  END TRANSMISSION  ---------->



<---------- BEGIN TRANSMISSION ---------->

GOT REPLY: HEYY$GPGGA,164020.000,4025.4351,N,07957.0814,W,2,10,0.91,234.6,M,-3$GPGGA,164021.000,

HEADER CONFIRMED

PACKET CONTAINS NMEA DATA

SENDING PACKET... DONE!

RSSI: -101

<----------  END TRANSMISSION  ---------->



<---------- BEGIN TRANSMISSION ---------->

GOT REPLY: HEYY$GPGGA,164024.000,4025.4377,N,07957.0829,W,2,10,0.91,234.6,M,-3$GPGGA,164025.000,

HEADER CONFIRMED

PACKET CONTAINS NMEA DATA

SENDING PACKET... DONE!

RSSI: -103

<----------  END TRANSMISSION  ---------->



<---------- BEGIN TRANSMISSION ---------->

GOT REPLY: HEYY$GPGGA,164028.000,4025.4401,N,07957.0843,W,2,10,0.91,234.6,M,-3407,N,07957.0847,W

HEADER CONFIRMED

PACKET CONTAINS NMEA DATA

SENDING PACKET... DONE!

RSSI: -91

<----------  END TRANSMISSION  ---------->



<---------- BEGIN TRANSMISSION ---------->

GOT REPLY: HEYY$GPGGA,164032.000,4025.4426,N,07957.0864,W,2,10,0.91,234.6,M,-3$GPGGA,164033.000,

HEADER CONFIRMED

PACKET CONTAINS NMEA DATA

SENDING PACKET... DONE!

RSSI: -90

<----------  END TRANSMISSION  ---------->



<---------- BEGIN TRANSMISSION ---------->

GOT REPLY: HEYY$GPGGA,164036.000,4025.4452,N,07957.0882,W,2,10,0.91,234.4,M,-3GPGGA,164037.000,4

HEADER CONFIRMED

PACKET CONTAINS NMEA DATA

SENDING PACKET... DONE!

RSSI: -103

<----------  END TRANSMISSION  ---------->





<---------- BEGIN TRANSMISSION ---------->

GOT REPLY: HEYY$GPGGA,164103.000,4025.4530,N,07957.0939,W,2,10,0.91,235.4,M,-3$GPGGA,164105.000,

HEADER CONFIRMED

PACKET CONTAINS NMEA DATA

SENDING PACKET... DONE!

RSSI: -98

<----------  END TRANSMISSION  ---------->



<---------- BEGIN TRANSMISSION ---------->

GOT REPLY: HEYY$GPGGA,164108.000,4025.4532,N,07957.0939,W,2,10,0.96,235.4,M,-37957.0942,W,2,10,0

HEADER CONFIRMED

PACKET CONTAINS NMEA DATA

SENDING PACKET... DONE!

RSSI: -102

<----------  END TRANSMISSION  ---------->



<---------- BEGIN TRANSMISSION ---------->

GOT REPLY: HEYY$GPGGA,164118.000,4025.4588,N,07957.0980,W,2,10,0.91,235.2,M,-3$GPGGA,164119.000,

HEADER CONFIRMED

PACKET CONTAINS NMEA DATA

SENDING PACKET... DONE!

RSSI: -98

<----------  END TRANSMISSION  ---------->



<---------- BEGIN TRANSMISSION ---------->

GOT REPLY: HEYY$GPGGA,164122.000,4025.4589,N,07957.0982,W,2,10,0.91,235.3,M,-3,-33.0,M,0000,0000

HEADER CONFIRMED

PACKET CONTAINS NMEA DATA

SENDING PACKET... DONE!

RSSI: -100

<----------  END TRANSMISSION  ---------->



<---------- BEGIN TRANSMISSION ---------->

GOT REPLY: HEYY$GPGGA,164126.000,4025.4616,N,07957.1000,W,2,10,0.91,235.2,M,-3,4025.4623,N,07957

HEADER CONFIRMED

PACKET CONTAINS NMEA DATA

SENDING PACKET... DONE!

RSSI: -102

<----------  END TRANSMISSION  ---------->




<---------- BEGIN TRANSMISSION ---------->

GOT REPLY: HEYY$GPGGA,164143.000,4025.4706,N,07957.1060,W,2,10,0.91,234.2,M,-30



HEADER CONFIRMED

PACKET CONTAINS NMEA DATA

SENDING PACKET... DONE!

RSSI: -102

<----------  END TRANSMISSION  ---------->



<---------- BEGIN TRANSMISSION ---------->

GOT REPLY: HEYY$GPGGA,164145.000,4025.4707,N,07957.1060,W,2,10,0.91,234.1,M,-3$GPGGA,164147.000,

HEADER CONFIRMED

PACKET CONTAINS NMEA DATA

SENDING PACKET... DONE!

RSSI: -90

<----------  END TRANSMISSION  ---------->




<---------- BEGIN TRANSMISSION ---------->

GOT REPLY: HEYY$GPGGA,164205.000,4025.4781,N,07957.1110,W,2,11,0.87,233.7,M,-37.1106,W,2,10,0.94

HEADER CONFIRMED

PACKET CONTAINS NMEA DATA

SENDING PACKET... DONE!

RSSI: -100

<----------  END TRANSMISSION  ---------->




<---------- BEGIN TRANSMISSION ---------->

GOT REPLY: HEYY$GPGGA,164218.000,4025.4703,N,07957.1049,W,2,10,0.92,231.1,M,-3$GPGGA,164220.000,

HEADER CONFIRMED

PACKET CONTAINS NMEA DATA

SENDING PACKET... DONE!

RSSI: -100

<----------  END TRANSMISSION  ---------->



<---------- BEGIN TRANSMISSION ---------->

GOT REPLY: HEYY$GPGGA,164227.000,4025.4638,N,07957.1005,W,2,11,0.87,230.4,M,-3$GPGGA,164228.000,

HEADER CONFIRMED

PACKET CONTAINS NMEA DATA

SENDING PACKET... DONE!

RSSI: -86

<----------  END TRANSMISSION  ---------->




<---------- BEGIN TRANSMISSION ---------->

GOT REPLY: HEYY$GPGGA,164239.000,4025.4553,N,07957.0952,W,2,11,0.87,230.7,M,-3$GPGGA,164240.000,

HEADER CONFIRMED

PACKET CONTAINS NMEA DATA

SENDING PACKET... DONE!

RSSI: -87

<----------  END TRANSMISSION  ---------->



<---------- BEGIN TRANSMISSION ---------->

GOT REPLY: HEYY$GPGGA,164243.000,4025.4531,N,07957.0936,W,2,10,0.92,230.5,M,-3$GPGGA,164244.000,

HEADER CONFIRMED

PACKET CONTAINS NMEA DATA

SENDING PACKET... DONE!

RSSI: -99

<----------  END TRANSMISSION  ---------->



<---------- BEGIN TRANSMISSION ---------->

GOT REPLY: HEYY$GPGGA,164247.000,4025.4503,N,07957.0918,W,2,11,0.87,230.3,M,-30,4025.4496,N,0795

HEADER CONFIRMED

PACKET CONTAINS NMEA DATA

SENDING PACKET... DONE!

RSSI: -104

<----------  END TRANSMISSION  ---------->




<---------- BEGIN TRANSMISSION ---------->

GOT REPLY: HEYY$GPGGA,164258.000,4025.4426,N,07957.0865,W,2,11,0.87,230.1,M,-32.61,N,4.84,K,D*30

HEADER CONFIRMED

PACKET CONTAINS NMEA DATA

SENDING PACKET... DONE!

RSSI: -92

<----------  END TRANSMISSION  ---------->



<---------- BEGIN TRANSMISSION ---------->

GOT REPLY: HEYY$GPGGA,164300.000,4025.4412,N,07957.0855,W,2,11,0.87,230.2,M,-3$GPGGA,164302.000,

HEADER CONFIRMED

PACKET CONTAINS NMEA DATA

SENDING PACKET... DONE!

RSSI: -91

<----------  END TRANSMISSION  ---------->



<---------- BEGIN TRANSMISSION ---------->

GOT REPLY: HEYY$GPGGA,164305.000,4025.4376,N,07957.0832,W,2,11,0.87,230.3,M,-3$GPGGA,164306.000,

HEADER CONFIRMED

PACKET CONTAINS NMEA DATA

SENDING PACKET... DONE!

RSSI: -90

<----------  END TRANSMISSION  ---------->



<---------- BEGIN TRANSMISSION ---------->

GOT REPLY: HEYY$GPGGA,164315.000,4025.4308,N,07957.0780,W,2,11,0.87,229.7,M,-3$GPGGA,164316.000,

HEADER CONFIRMED

PACKET CONTAINS NMEA DATA

SENDING PACKET... DONE!

RSSI: -86

<----------  END TRANSMISSION  ---------->



<---------- BEGIN TRANSMISSION ---------->

GOT REPLY: HEYY$GPGGA,164319.000,4025.4277,N,07957.0762,W,2,11,0.87,229.6,M,-3$GPGGA,164320.000,

HEADER CONFIRMED

PACKET CONTAINS NMEA DATA

SENDING PACKET... DONE!

RSSI: -83

<----------  END TRANSMISSION  ---------->



<---------- BEGIN TRANSMISSION ---------->

GOT REPLY: HEYY$GPGGA,164328.000,4025.4205,N,07957.0709,W,2,11,0.87,229.6,M,-3$GPGGA,164330.000,

HEADER CONFIRMED

PACKET CONTAINS NMEA DATA

SENDING PACKET... DONE!

RSSI: -84

<----------  END TRANSMISSION  ---------->



<---------- BEGIN TRANSMISSION ---------->

GOT REPLY: HEYY$GPGGA,164338.000,4025.4128,N,07957.0660,W,2,11,0.87,230.7,M,-3,4.66,K,D*39



HEADER CONFIRMED

PACKET CONTAINS NMEA DATA

SENDING PACKET... DONE!

RSSI: -84

<----------  END TRANSMISSION  ---------->



<---------- BEGIN TRANSMISSION ---------->

GOT REPLY: HEYY$GPGGA,164340.000,4025.4114,N,07957.0649,W,2,11,0.87,230.7,M,-3$GPGGA,164342.000,

HEADER CONFIRMED

PACKET CONTAINS NMEA DATA

SENDING PACKET... DONE!

RSSI: -83

<----------  END TRANSMISSION  ---------->



<---------- BEGIN TRANSMISSION ---------->

GOT REPLY: HEYY$GPGGA,164345.000,4025.4080,N,07957.0621,W,2,10,0.92,230.8,M,-37957.0616,W,2,11,0

HEADER CONFIRMED

PACKET CONTAINS NMEA DATA

SENDING PACKET... DONE!

RSSI: -89

<----------  END TRANSMISSION  ---------->



<---------- BEGIN TRANSMISSION ---------->

GOT REPLY: HEYY$GPGGA,164353.000,4025.4016,N,07957.0578,W,2,11,0.87,231.3,M,-3$GPGGA,164354.000,

HEADER CONFIRMED

PACKET CONTAINS NMEA DATA

SENDING PACKET... DONE!

RSSI: -91

<----------  END TRANSMISSION  ---------->



<---------- BEGIN TRANSMISSION ---------->

GOT REPLY: HEYY$GPGGA,164357.000,4025.3983,N,07957.0561,W,2,09,0.98,231.5,M,-3$GPGGA,164358.000,

HEADER CONFIRMED

PACKET CONTAINS NMEA DATA

SENDING PACKET... DONE!

RSSI: -90

<----------  END TRANSMISSION  ---------->



<---------- BEGIN TRANSMISSION ---------->

GOT REPLY: HEYY$GPGGA,164401.000,4025.3951,N,07957.0541,W,2,11,0.87,231.6,M,-3$GPGGA,164402.000,

HEADER CONFIRMED

PACKET CONTAINS NMEA DATA

SENDING PACKET... DONE!

RSSI: -81

<----------  END TRANSMISSION  ---------->




<---------- BEGIN TRANSMISSION ---------->

GOT REPLY: HEYY$GPGGA,164418.000,4025.3835,N,07957.0467,W,2,10,0.92,233.2,M,-3$GPGGA,164420.000,

HEADER CONFIRMED

PACKET CONTAINS NMEA DATA

SENDING PACKET... DONE!

RSSI: -88

<----------  END TRANSMISSION  ---------->



<---------- BEGIN TRANSMISSION ---------->

GOT REPLY: HEYY$GPGGA,164423.000,4025.3806,N,07957.0444,W,2,10,0.92,233.3,M,-3$GPGGA,164424.000,

HEADER CONFIRMED

PACKET CONTAINS NMEA DATA

SENDING PACKET... DONE!

RSSI: -91

<----------  END TRANSMISSION  ---------->



<---------- BEGIN TRANSMISSION ---------->

GOT REPLY: HEYY$GPGGA,164427.000,4025.3778,N,07957.0426,W,2,11,0.87,233.5,M,-31,0.87,233.5,M,-33

HEADER CONFIRMED

PACKET CONTAINS NMEA DATA

SENDING PACKET... DONE!

RSSI: -79

<----------  END TRANSMISSION  ---------->



<---------- BEGIN TRANSMISSION ---------->

GOT REPLY: HEYY$GPGGA,164433.000,4025.3735,N,07957.0392,W,2,11,0.87,233.7,M,-3$GPGGA,164434.000,

HEADER CONFIRMED

PACKET CONTAINS NMEA DATA

SENDING PACKET... DONE!

RSSI: -92

<----------  END TRANSMISSION  ---------->



<---------- BEGIN TRANSMISSION ---------->

GOT REPLY: HEYY$GPGGA,164437.000,4025.3712,N,07957.0373,W,2,10,0.92,233.7,M,-3$GPGGA,164438.000,

HEADER CONFIRMED

PACKET CONTAINS NMEA DATA

SENDING PACKET... DONE!

RSSI: -83

<----------  END TRANSMISSION  ---------->



<---------- BEGIN TRANSMISSION ---------->

GOT REPLY: HEYY$GPGGA,164447.000,4025.3640,N,07957.0324,W,2,11,0.87,234.0,M,-3$GPGGA,164448.000,

HEADER CONFIRMED

PACKET CONTAINS NMEA DATA

SENDING PACKET... DONE!

RSSI: -80

<----------  END TRANSMISSION  ---------->




<---------- BEGIN TRANSMISSION ---------->

GOT REPLY: HEYY$GPGGA,164458.000,4025.3566,N,07957.0273,W,2,11,0.87,234.5,M,-3$GPGGA,164500.000,

HEADER CONFIRMED

PACKET CONTAINS NMEA DATA

SENDING PACKET... DONE!

RSSI: -74

<----------  END TRANSMISSION  ---------->



<---------- BEGIN TRANSMISSION ---------->

GOT REPLY: HEYY$GPGGA,164508.000,4025.3492,N,07957.0223,W,2,11,0.87,235.0,M,-3$GPGGA,164510.000,

HEADER CONFIRMED

PACKET CONTAINS NMEA DATA

SENDING PACKET... DONE!

RSSI: -80

<----------  END TRANSMISSION  ---------->





<---------- BEGIN TRANSMISSION ---------->

GOT REPLY: HEYY$GPGGA,164538.000,4025.3277,N,07957.0074,W,2,11,0.87,236.8,M,-3$GPGGA,164540.000,

HEADER CONFIRMED

PACKET CONTAINS NMEA DATA

SENDING PACKET... DONE!

RSSI: -61

<----------  END TRANSMISSION  ---------->



<---------- BEGIN TRANSMISSION ---------->

GOT REPLY: HEYY$GPGGA,164548.000,4025.3197,N,07957.0023,W,2,11,0.87,236.8,M,-3$GPGGA,164550.000,

HEADER CONFIRMED

PACKET CONTAINS NMEA DATA

SENDING PACKET... DONE!

RSSI: -74

<----------  END TRANSMISSION  ---------->



<---------- BEGIN TRANSMISSION ---------->

GOT REPLY: HEYY$GPGGA,164557.000,4025.3131,N,07956.9973,W,2,11,0.87,237.1,M,-3$GPGGA,164558.000,

HEADER CONFIRMED

PACKET CONTAINS NMEA DATA

SENDING PACKET... DONE!

RSSI: -68

<----------  END TRANSMISSION  ---------->




<---------- BEGIN TRANSMISSION ---------->

GOT REPLY: HEYY$GPGGA,164608.000,4025.3063,N,07956.9918,W,2,11,0.87,237.2,M,-3$GPGGA,164610.000,

HEADER CONFIRMED

PACKET CONTAINS NMEA DATA

SENDING PACKET... DONE!

RSSI: -34

<----------  END TRANSMISSION  ---------->





<---------- BEGIN TRANSMISSION ---------->

GOT REPLY: HEYY$GPGGA,164631.000,4025.2979,N,07956.9867,W,2,11,0.87,239.0,M,-3$GPGGA,164632.000,

HEADER CONFIRMED

PACKET CONTAINS NMEA DATA

SENDING PACKET... DONE!

RSSI: -27

<----------  END TRANSMISSION  ---------->



<---------- BEGIN TRANSMISSION ---------->

GOT REPLY: HEYY$GPGGA,164635.000,4025.2979,N,07956.9866,W,2,11,0.87,238.9,M,-3$GPGGA,164636.000,

HEADER CONFIRMED

PACKET CONTAINS NMEA DATA

SENDING PACKET... DONE!

RSSI: -25

<----------  END TRANSMISSION  ---------->



<---------- BEGIN TRANSMISSION ---------->

GOT REPLY: HEYY$GPGGA,164643.000,4025.2980,N,07956.9868,W,2,10,1.06,238.9,M,-3$GPGGA,164644.000,

HEADER CONFIRMED

PACKET CONTAINS NMEA DATA

SENDING PACKET... DONE!

RSSI: -29

<----------  END TRANSMISSION  ---------->


