

<---------- BEGIN TRANSMISSION ---------->

GOT REPLY: HEYY$GP

<---------- BEGIN TRANSMISSION ---------->

GOT REPLY: HEYY$GPGGA,165533.000,4025.2472,N,07956.9550,W,2,10,1.00,243.8,M,-30,26,25,32,01,03,,

HEADER CONFIRMED

PACKET CONTAINS NMEA DATA

SENDING PACKET... DONE!

RSSI: -32

<----------  END TRANSMISSION  ---------->



<---------- BEGIN TRANSMISSION ---------->

GOT REPLY: HEYY$GPGGA,165539.000,4025.2473,N,07956.9550,W,2,10,1.00,243.8,M,-3$GPGGA,165540.000,

HEADER CONFIRMED

PACKET CONTAINS NMEA DATA

SENDING PACKET... DONE!

RSSI: -23

<----------  END TRANSMISSION  ---------->



<---------- BEGIN TRANSMISSION ---------->

GOT REPLY: HEYY$GPGGA,165543.000,4025.2473,N,07956.9550,W,2,10,1.00,243.8,M,-3.2473,N,07956.9550

HEADER CONFIRMED

PACKET CONTAINS NMEA DATA

SENDING PACKET... DONE!

RSSI: -30

<----------  END TRANSMISSION  ---------->



<---------- BEGIN TRANSMISSION ---------->

GOT REPLY: HEYY$GPGGA,165547.000,4025.2473,N,07956.9550,W,2,10,1.00,243.8,M,-31.00,243.8,M,-33.0

HEADER CONFIRMED

PACKET CONTAINS NMEA DATA

SENDING PACKET... DONE!

RSSI: -25

<----------  END TRANSMISSION  ---------->



<---------- BEGIN TRANSMISSION ---------->

GOT REPLY: HEYY$GPGGA,165551.000,4025.2473,N,07956.9550,W,2,09,1.09,243.8,M,-3$GPGGA,165552.000,

HEADER CONFIRMED

PACKET CONTAINS NMEA DATA

SENDING PACKET... DONE!

RSSI: -25

<----------  END TRANSMISSION  ---------->



<---------- BEGIN TRANSMISSION ---------->

GOT REPLY: HEYY$GPGGA,165555.000,4025.2473,N,07956.9550,W,2,10,1.00,243.8,M,-3$GPGGA,165556.000,

HEADER CONFIRMED

PACKET CONTAINS NMEA DATA

SENDING PACKET... DONE!

RSSI: -27

<----------  END TRANSMISSION  ---------->



<---------- BEGIN TRANSMISSION ---------->

GOT REPLY: HEYY$GPGGA,165559.000,4025.2473,N,07956.9550,W,2,10,1.00,243.8,M,-3GPGSA,A,3,18,22,14

HEADER CONFIRMED

PACKET CONTAINS NMEA DATA

SENDING PACKET... DONE!

RSSI: -27

<----------  END TRANSMISSION  ---------->



<---------- BEGIN TRANSMISSION ---------->

GOT REPLY: HEYY$GPGGA,165605.000,4025.2473,N,07956.9550,W,2,10,1.00,243.8,M,-3$GPGGA,165606.000,

HEADER CONFIRMED

PACKET CONTAINS NMEA DATA

SENDING PACKET... DONE!

RSSI: -31

<----------  END TRANSMISSION  ---------->



<---------- BEGIN TRANSMISSION ---------->

GOT REPLY: HEYY$GPGGA,165609.000,4025.2473,N,07956.9551,W,2,10,0.90,243.8,M,-3GA,165610.000,4025

HEADER CONFIRMED

PACKET CONTAINS NMEA DATA

SENDING PACKET... DONE!

RSSI: -39

<----------  END TRANSMISSION  ---------->



<---------- BEGIN TRANSMISSION ---------->

GOT REPLY: HEYY$GPGGA,165613.000,4025.2487,N,07956.9556,W,2,10,0.90,243.5,M,-3$GPGGA,165614.000,

HEADER CONFIRMED

PACKET CONTAINS NMEA DATA

SENDING PACKET... DONE!

RSSI: -48

<----------  END TRANSMISSION  ---------->



<---------- BEGIN TRANSMISSION ---------->

GOT REPLY: HEYY$GPGGA,165617.000,4025.2516,N,07956.9570,W,2,10,0.90,243.4,M,-30,243.4,M,-33.0,M,

HEADER CONFIRMED

PACKET CONTAINS NMEA DATA

SENDING PACKET... DONE!

RSSI: -47

<----------  END TRANSMISSION  ---------->



<---------- BEGIN TRANSMISSION ---------->

GOT REPLY: HEYY$GPGGA,165621.000,4025.2545,N,07956.9582,W,2,10,0.90,243.3,M,-3,07956.9585,W,2,10

HEADER CONFIRMED

PACKET CONTAINS NMEA DATA

SENDING PACKET... DONE!

RSSI: -48

<----------  END TRANSMISSION  ---------->



<---------- BEGIN TRANSMISSION ---------->

GOT REPLY: HEYY$GPGGA,165625.000,4025.2564,N,07956.9593,W,2,10,0.90,243.1,M,-3$GPGGA,165626.000,

HEADER CONFIRMED

PACKET CONTAINS NMEA DATA

SENDING PACKET... DONE!

RSSI: -55

<----------  END TRANSMISSION  ---------->



<---------- BEGIN TRANSMISSION ---------->

GOT REPLY: HEYY$GPGGA,165629.000,4025.2580,N,07956.9610,W,2,10,0.90,242.2,M,-3.90,242.0,M,-33.0,

HEADER CONFIRMED

PACKET CONTAINS NMEA DATA

SENDING PACKET... DONE!

RSSI: -60

<----------  END TRANSMISSION  ---------->



<---------- BEGIN TRANSMISSION ---------->

GOT REPLY: HEYY$GPGGA,165633.000,4025.2599,N,07956.9627,W,2,10,0.90,241.8,M,-3,N,07956.9631,W,2,

HEADER CONFIRMED

PACKET CONTAINS NMEA DATA

SENDING PACKET... DONE!

RSSI: -61

<----------  END TRANSMISSION  ---------->



<---------- BEGIN TRANSMISSION ---------->

GOT REPLY: HEYY$GPGGA,165637.000,4025.2620,N,07956.9641,W,2,10,0.90,241.2,M,-3$GPGGA,165638.000,

HEADER CONFIRMED

PACKET CONTAINS NMEA DATA

SENDING PACKET... DONE!

RSSI: -64

<----------  END TRANSMISSION  ---------->



<---------- BEGIN TRANSMISSION ---------->

GOT REPLY: HEYY$GPGGA,165641.000,4025.2644,N,07956.9660,W,2,10,0.90,240.8,M,-3,2,10,0.90,240.7,M

HEADER CONFIRMED

PACKET CONTAINS NMEA DATA

SENDING PACKET... DONE!

RSSI: -61

<----------  END TRANSMISSION  ---------->



<---------- BEGIN TRANSMISSION ---------->

GOT REPLY: HEYY$GPGGA,165645.000,4025.2670,N,07956.9682,W,2,10,0.90,240.5,M,-3$GPGGA,165646.000,

HEADER CONFIRMED

PACKET CONTAINS NMEA DATA

SENDING PACKET... DONE!

RSSI: -60

<----------  END TRANSMISSION  ---------->



<---------- BEGIN TRANSMISSION ---------->

GOT REPLY: HEYY$GPGGA,165649.000,4025.2697,N,07956.9703,W,2,10,0.90,240.3,M,-3,10,26,25,32,01,03

HEADER CONFIRMED

PACKET CONTAINS NMEA DATA

SENDING PACKET... DONE!

RSSI: -63

<----------  END TRANSMISSION  ---------->



<---------- BEGIN TRANSMISSION ---------->

GOT REPLY: HEYY$GPGGA,165655.000,4025.2734,N,07956.9736,W,2,10,0.90,240.8,M,-3$GPGGA,165656.000,

HEADER CONFIRMED

PACKET CONTAINS NMEA DATA

SENDING PACKET... DONE!

RSSI: -65

<----------  END TRANSMISSION  ---------->



<---------- BEGIN TRANSMISSION ---------->

GOT REPLY: HEYY$GPGGA,165659.000,4025.2753,N,07956.9755,W,2,10,0.90,241.2,M,-31.2,M,-33.0,M,0000

HEADER CONFIRMED

PACKET CONTAINS NMEA DATA

SENDING PACKET... DONE!

RSSI: -65

<----------  END TRANSMISSION  ---------->



<---------- BEGIN TRANSMISSION ---------->

GOT REPLY: HEYY$GPGGA,165703.000,4025.2758,N,07956.9759,W,2,10,0.90,241.4,M,-3,165704.000,4025.2

HEADER CONFIRMED

PACKET CONTAINS NMEA DATA

SENDING PACKET... DONE!

RSSI: -62

<----------  END TRANSMISSION  ---------->



<---------- BEGIN TRANSMISSION ---------->

GOT REPLY: HEYY$GPGGA,165707.000,4025.2782,N,07956.9779,W,2,10,0.90,241.8,M,-3$GPGGA,165708.000,

HEADER CONFIRMED

PACKET CONTAINS NMEA DATA

SENDING PACKET... DONE!

RSSI: -67

<----------  END TRANSMISSION  ---------->



<---------- BEGIN TRANSMISSION ---------->

GOT REPLY: HEYY$GPGGA,165711.000,4025.2806,N,07956.9796,W,2,10,0.90,242.2,M,-30000*5E



HEADER CONFIRMED

PACKET CONTAINS NMEA DATA

SENDING PACKET... DONE!

RSSI: -67

<----------  END TRANSMISSION  ---------->



<---------- BEGIN TRANSMISSION ---------->

GOT REPLY: HEYY$GPGGA,165715.000,4025.2830,N,07956.9812,W,2,10,0.90,242.6,M,-3$GPGGA,165716.000,

HEADER CONFIRMED

PACKET CONTAINS NMEA DATA

SENDING PACKET... DONE!

RSSI: -82

<----------  END TRANSMISSION  ---------->



<---------- BEGIN TRANSMISSION ---------->

GOT REPLY: HEYY$GPGGA,165719.000,4025.2853,N,07956.9825,W,2,10,0.90,243.3,M,-3000,4025.2856,N,07

HEADER CONFIRMED

PACKET CONTAINS NMEA DATA

SENDING PACKET... DONE!

RSSI: -80

<----------  END TRANSMISSION  ---------->



<---------- BEGIN TRANSMISSION ---------->

GOT REPLY: HEYY$GPGGA,165723.000,4025.2867,N,07956.9836,W,2,10,0.90,244.1,M,-3,2,10,0.90,244.2,M

HEADER CONFIRMED

PACKET CONTAINS NMEA DATA

SENDING PACKET... DONE!

RSSI: -76

<----------  END TRANSMISSION  ---------->



<---------- BEGIN TRANSMISSION ---------->

GOT REPLY: HEYY$GPGGA,165727.000,4025.2893,N,07956.9856,W,2,10,0.90,244.8,M,-3$GPGGA,165728.000,

HEADER CONFIRMED

PACKET CONTAINS NMEA DATA

SENDING PACKET... DONE!

RSSI: -77

<----------  END TRANSMISSION  ---------->



<---------- BEGIN TRANSMISSION ---------->

GOT REPLY: HEYY$GPGGA,165731.000,4025.2919,N,07956.9873,W,2,09,1.01,245.4,M,-3GPGSA,A,3,18,22,14

HEADER CONFIRMED

PACKET CONTAINS NMEA DATA

SENDING PACKET... DONE!

RSSI: -80

<----------  END TRANSMISSION  ---------->



<---------- BEGIN TRANSMISSION ---------->

GOT REPLY: HEYY$GPGGA,165738.000,4025.2971,N,07956.9903,W,2,10,0.90,245.3,M,-3$GPGGA,165740.000,

HEADER CONFIRMED

PACKET CONTAINS NMEA DATA

SENDING PACKET... DONE!

RSSI: -86

<----------  END TRANSMISSION  ---------->



<---------- BEGIN TRANSMISSION ---------->

GOT REPLY: HEYY$GPGGA,165743.000,4025.2990,N,07956.9915,W,2,10,0.90,244.7,M,-3$GPGGA,165744.000,

HEADER CONFIRMED

PACKET CONTAINS NMEA DATA

SENDING PACKET... DONE!

RSSI: -76

<----------  END TRANSMISSION  ---------->



<---------- BEGIN TRANSMISSION ---------->

GOT REPLY: HEYY$GPGGA,165747.000,4025.3008,N,07956.9930,W,2,10,0.90,244.3,M,-3,M,-33.0,M,0000,00

HEADER CONFIRMED

PACKET CONTAINS NMEA DATA

SENDING PACKET... DONE!

RSSI: -83

<----------  END TRANSMISSION  ---------->




<---------- BEGIN TRANSMISSION ---------->

GOT REPLY: HEYY$GPGGA,165758.000,4025.3046,N,07956.9956,W,2,10,0.90,243.9,M,-36



HEADER CONFIRMED

PACKET CONTAINS NMEA DATA

SENDING PACKET... DONE!

RSSI: -82

<----------  END TRANSMISSION  ---------->



<---------- BEGIN TRANSMISSION ---------->

GOT REPLY: HEYY$GPGGA,165802.000,4025.3048,N,07956.9957,W,2,10,0.90,244.1,M,-3.90,0.84*08



HEADER CONFIRMED

PACKET CONTAINS NMEA DATA

SENDING PACKET... DONE!

RSSI: -82

<----------  END TRANSMISSION  ---------->



<---------- BEGIN TRANSMISSION ---------->

GOT REPLY: HEYY$GPGGA,165808.000,4025.3078,N,07956.9977,W,2,10,0.90,244.7,M,-3$GPGGA,165809.000,

HEADER CONFIRMED

PACKET CONTAINS NMEA DATA

SENDING PACKET... DONE!

RSSI: -100

<----------  END TRANSMISSION  ---------->



<---------- BEGIN TRANSMISSION ---------->

GOT REPLY: HEYY$GPGGA,165812.000,4025.3101,N,07956.9991,W,2,10,0.90,244.5,M,-3$GPGGA,165813.000,

HEADER CONFIRMED

PACKET CONTAINS NMEA DATA

SENDING PACKET... DONE!

RSSI: -88

<----------  END TRANSMISSION  ---------->



<---------- BEGIN TRANSMISSION ---------->

GOT REPLY: HEYY$GPGGA,165816.000,4025.3130,N,07957.0007,W,2,10,0.90,243.9,M,-3$GPGGA,165817.000,

HEADER CONFIRMED

PACKET CONTAINS NMEA DATA

SENDING PACKET... DONE!

RSSI: -81

<----------  END TRANSMISSION  ---------->



<---------- BEGIN TRANSMISSION ---------->

GOT REPLY: HEYY$GPGGA,165820.000,4025.3157,N,07957.0026,W,2,10,0.90,243.5,M,-3821.000,4025.3161,

HEADER CONFIRMED

PACKET CONTAINS NMEA DATA

SENDING PACKET... DONE!

RSSI: -87

<----------  END TRANSMISSION  ---------->



<---------- BEGIN TRANSMISSION ---------->

GOT REPLY: HEYY$GPGGA,165824.000,4025.3167,N,07957.0031,W,2,10,0.90,243.3,M,-3$GPGGA,165825.000,

HEADER CONFIRMED

PACKET CONTAINS NMEA DATA

SENDING PACKET... DONE!

RSSI: -87

<----------  END TRANSMISSION  ---------->



<---------- BEGIN TRANSMISSION ---------->

GOT REPLY: HEYY$GPGGA,165834.000,4025.3233,N,07957.0073,W,2,10,0.90,242.5,M,-3$GPGGA,165835.000,

HEADER CONFIRMED

PACKET CONTAINS NMEA DATA

SENDING PACKET... DONE!

RSSI: -89

<----------  END TRANSMISSION  ---------->



<---------- BEGIN TRANSMISSION ---------->

GOT REPLY: HEYY$GPGGA,165838.000,4025.3256,N,07957.0088,W,2,10,0.90,242.3,M,-3,2,10,0.90,242.2,M

HEADER CONFIRMED

PACKET CONTAINS NMEA DATA

SENDING PACKET... DONE!

RSSI: -88

<----------  END TRANSMISSION  ---------->




<---------- BEGIN TRANSMISSION ---------->

GOT REPLY: HEYY$GPGGA,165850.000,4025.3336,N,07957.0138,W,2,10,0.90,241.9,M,-3$GPGGA,165851.000,

HEADER CONFIRMED

PACKET CONTAINS NMEA DATA

SENDING PACKET... DONE!

RSSI: -87

<----------  END TRANSMISSION  ---------->



<---------- BEGIN TRANSMISSION ---------->

GOT REPLY: HEYY$GPGGA,165900.000,4025.3398,N,07957.0183,W,2,10,0.90,241.7,M,-3$GPGGA,165901.000,

HEADER CONFIRMED

PACKET CONTAINS NMEA DATA

SENDING PACKET... DONE!

RSSI: -86

<----------  END TRANSMISSION  ---------->



<---------- BEGIN TRANSMISSION ---------->

GOT REPLY: HEYY$GPGGA,165904.000,4025.3422,N,07957.0200,W,2,10,0.90,241.7,M,-35.000,4025.3428,N,

HEADER CONFIRMED

PACKET CONTAINS NMEA DATA

SENDING PACKET... DONE!

RSSI: -84

<----------  END TRANSMISSION  ---------->



<---------- BEGIN TRANSMISSION ---------->

GOT REPLY: HEYY$GPGGA,165914.000,4025.3485,N,07957.0250,W,2,10,0.90,241.3,M,-3$GPGGA,165915.000,

HEADER CONFIRMED

PACKET CONTAINS NMEA DATA

SENDING PACKET... DONE!

RSSI: -99

<----------  END TRANSMISSION  ---------->



<---------- BEGIN TRANSMISSION ---------->

GOT REPLY: HEYY$GPGGA,165918.000,4025.3494,N,07957.0257,W,2,10,0.90,241.1,M,-3.90,241.1,M,-33.0,

HEADER CONFIRMED

PACKET CONTAINS NMEA DATA

SENDING PACKET... DONE!

RSSI: -87

<----------  END TRANSMISSION  ---------->



<---------- BEGIN TRANSMISSION ---------->

GOT REPLY: HEYY$GPGGA,165922.000,4025.3517,N,07957.0270,W,2,10,0.90,241.1,M,-3$GPGGA,165923.000,

HEADER CONFIRMED

PACKET CONTAINS NMEA DATA

SENDING PACKET... DONE!

RSSI: -99

<----------  END TRANSMISSION  ---------->



<---------- BEGIN TRANSMISSION ---------->

GOT REPLY: HEYY$GPGGA,165926.000,4025.3543,N,07957.0289,W,2,10,0.90,241.0,M,-3.000,4025.3550,N,0

HEADER CONFIRMED

PACKET CONTAINS NMEA DATA

SENDING PACKET... DONE!

RSSI: -90

<----------  END TRANSMISSION  ---------->



<---------- BEGIN TRANSMISSION ---------->

GOT REPLY: HEYY$GPGGA,165930.000,4025.3570,N,07957.0308,W,2,10,0.90,241.1,M,-3,07957.0313,W,2,10

HEADER CONFIRMED

PACKET CONTAINS NMEA DATA

SENDING PACKET... DONE!

RSSI: -102

<----------  END TRANSMISSION  ---------->



<---------- BEGIN TRANSMISSION ---------->

GOT REPLY: HEYY$GPGGA,165934.000,4025.3594,N,07957.0325,W,2,10,0.90,241.0,M,-3,0.90,240.9,M,-33.

HEADER CONFIRMED

PACKET CONTAINS NMEA DATA

SENDING PACKET... DONE!

RSSI: -103

<----------  END TRANSMISSION  ---------->



<---------- BEGIN TRANSMISSION ---------->

GOT REPLY: HEYY$GPGGA,165938.000,4025.3624,N,07957.0341,W,2,10,0.90,240.6,M,-3$GPGGA,165939.000,

HEADER CONFIRMED

PACKET CONTAINS NMEA DATA

SENDING PACKET... DONE!

RSSI: -99

<----------  END TRANSMISSION  ---------->





<---------- BEGIN TRANSMISSION ---------->

GOT REPLY: HEYY$GPGGA,170006.000,4025.3711,N,07957.0392,W,2,10,0.90,240.0,M,-3$GPGGA,170007.000,

HEADER CONFIRMED

PACKET CONTAINS NMEA DATA

SENDING PACKET... DONE!

RSSI: -99

<----------  END TRANSMISSION  ---------->



<---------- BEGIN TRANSMISSION ---------->

GOT REPLY: HEYY$GPGGA,170010.000,4025.3709,N,07957.0391,W,2,10,0.90,239.9,M,-3,M,-33.0,M,0000,00

HEADER CONFIRMED

PACKET CONTAINS NMEA DATA

SENDING PACKET... DONE!

RSSI: -98

<----------  END TRANSMISSION  ---------->



<---------- BEGIN TRANSMISSION ---------->

GOT REPLY: HEYY$GPGGA,170020.000,4025.3720,N,07957.0399,W,2,10,0.90,239.7,M,-3$GPGGA,170021.000,

HEADER CONFIRMED

PACKET CONTAINS NMEA DATA

SENDING PACKET... DONE!

RSSI: -100

<----------  END TRANSMISSION  ---------->



<---------- BEGIN TRANSMISSION ---------->

GOT REPLY: HEYY$GPGGA,170024.000,4025.3723,N,07957.0402,W,2,10,0.90,239.6,M,-300,4025.3725,N,079

HEADER CONFIRMED

PACKET CONTAINS NMEA DATA

SENDING PACKET... DONE!

RSSI: -104

<----------  END TRANSMISSION  ---------->



<---------- BEGIN TRANSMISSION ---------->

GOT REPLY: HEYY$GPGGA,170034.000,4025.3773,N,07957.0438,W,2,10,0.90,239.4,M,-3$GPGGA,170035.000,

HEADER CONFIRMED

PACKET CONTAINS NMEA DATA

SENDING PACKET... DONE!

RSSI: -98

<----------  END TRANSMISSION  ---------->



<---------- BEGIN TRANSMISSION ---------->

GOT REPLY: HEYY$GPGGA,170044.000,4025.3832,N,07957.0461,W,2,10,0.90,239.1,M,-3$GPGGA,170045.000,

HEADER CONFIRMED

PACKET CONTAINS NMEA DATA

SENDING PACKET... DONE!

RSSI: -99

<----------  END TRANSMISSION  ---------->



<---------- BEGIN TRANSMISSION ---------->

GOT REPLY: HEYY$GPGGA,170054.000,4025.3884,N,07957.0510,W,2,10,0.90,237.5,M,-3$GPGGA,170055.000,

HEADER CONFIRMED

PACKET CONTAINS NMEA DATA

SENDING PACKET... DONE!

RSSI: -97

<----------  END TRANSMISSION  ---------->



<---------- BEGIN TRANSMISSION ---------->

GOT REPLY: HEYY$GPGGA,170058.000,4025.3879,N,07957.0520,W,2,10,0.90,236.8,M,-33,18,22,14,31,10,2

HEADER CONFIRMED

PACKET CONTAINS NMEA DATA

SENDING PACKET... DONE!

RSSI: -95

<----------  END TRANSMISSION  ---------->




<---------- BEGIN TRANSMISSION ---------->

GOT REPLY: HEYY$GPGGA,170110.000,4025.3942,N,07957.0559,W,2,10,0.90,237.5,M,-3$GPGGA,170111.000,

HEADER CONFIRMED

PACKET CONTAINS NMEA DATA

SENDING PACKET... DONE!

RSSI: -100

<----------  END TRANSMISSION  ---------->








<---------- BEGIN TRANSMISSION ---------->

GOT REPLY: HEYY$GPGGA,170205.000,4025.4011,N,07957.0570,W,2,10,0.90,235.8,M,-33994,N,07957.0562,

HEADER CONFIRMED

PACKET CONTAINS NMEA DATA

SENDING PACKET... DONE!

RSSI: -87

<----------  END TRANSMISSION  ---------->





<---------- BEGIN TRANSMISSION ---------->

GOT REPLY: HEYY$GPGGA,170228.000,4025.3878,N,07957.0495,W,2,10,0.90,236.3,M,-3$GPGGA,170230.000,

HEADER CONFIRMED

PACKET CONTAINS NMEA DATA

SENDING PACKET... DONE!

RSSI: -97

<----------  END TRANSMISSION  ---------->



<---------- BEGIN TRANSMISSION ---------->

GOT REPLY: HEYY$GPGGA,170233.000,4025.3843,N,07957.0475,W,2,10,0.90,236.9,M,-331,10,26,25,32,01,

HEADER CONFIRMED

PACKET CONTAINS NMEA DATA

SENDING PACKET... DONE!

RSSI: -98

<----------  END TRANSMISSION  ---------->




<---------- BEGIN TRANSMISSION ---------->

GOT REPLY: HEYY$GPGGA,170251.000,4025.3718,N,07957.0393,W,2,10,0.90,240.7,M,-3$GPGGA,170252.000,

HEADER CONFIRMED

PACKET CONTAINS NMEA DATA

SENDING PACKET... DONE!

RSSI: -96

<----------  END TRANSMISSION  ---------->



<---------- BEGIN TRANSMISSION ---------->

GOT REPLY: HEYY$GPGGA,170255.000,4025.3692,N,07957.0377,W,2,10,0.89,241.5,M,-3$GPGGA,170256.000,

HEADER CONFIRMED

PACKET CONTAINS NMEA DATA

SENDING PACKET... DONE!

RSSI: -94

<----------  END TRANSMISSION  ---------->



<---------- BEGIN TRANSMISSION ---------->

GOT REPLY: HEYY$GPGGA,170259.000,4025.3664,N,07957.0356,W,2,10,0.90,242.5,M,-3,0000,0000*5F



HEADER CONFIRMED

PACKET CONTAINS NMEA DATA

SENDING PACKET... DONE!

RSSI: -96

<----------  END TRANSMISSION  ---------->



<---------- BEGIN TRANSMISSION ---------->

GOT REPLY: HEYY$GPGGA,170303.000,4025.3636,N,07957.0338,W,2,10,0.89,243.3,M,-3$GPGGA,170304.000,

HEADER CONFIRMED

PACKET CONTAINS NMEA DATA

SENDING PACKET... DONE!

RSSI: -98

<----------  END TRANSMISSION  ---------->



<---------- BEGIN TRANSMISSION ---------->

GOT REPLY: HEYY$GPGGA,170307.000,4025.3606,N,07957.0319,W,2,10,0.90,244.0,M,-310,26,25,32,01,03,

HEADER CONFIRMED

PACKET CONTAINS NMEA DATA

SENDING PACKET... DONE!

RSSI: -83

<----------  END TRANSMISSION  ---------->



<---------- BEGIN TRANSMISSION ---------->

GOT REPLY: HEYY$GPGGA,170313.000,4025.3565,N,07957.0294,W,2,10,0.89,244.4,M,-3$GPGGA,170314.000,

HEADER CONFIRMED

PACKET CONTAINS NMEA DATA

SENDING PACKET... DONE!

RSSI: -88

<----------  END TRANSMISSION  ---------->



<---------- BEGIN TRANSMISSION ---------->

GOT REPLY: HEYY$GPGGA,170317.000,4025.3540,N,07957.0279,W,2,10,0.89,244.8,M,-3M,-33.0,M,0000,000

HEADER CONFIRMED

PACKET CONTAINS NMEA DATA

SENDING PACKET... DONE!

RSSI: -86

<----------  END TRANSMISSION  ---------->



<---------- BEGIN TRANSMISSION ---------->

GOT REPLY: HEYY$GPGGA,170321.000,4025.3517,N,07957.0262,W,2,10,0.89,245.1,M,-3$GPGGA,170322.000,

HEADER CONFIRMED

PACKET CONTAINS NMEA DATA

SENDING PACKET... DONE!

RSSI: -83

<----------  END TRANSMISSION  ---------->



<---------- BEGIN TRANSMISSION ---------->

GOT REPLY: HEYY$GPGGA,170325.000,4025.3492,N,07957.0245,W,2,10,0.89,245.6,M,-3$GPGGA,170326.000,

HEADER CONFIRMED

PACKET CONTAINS NMEA DATA

SENDING PACKET... DONE!

RSSI: -104

<----------  END TRANSMISSION  ---------->



<---------- BEGIN TRANSMISSION ---------->

GOT REPLY: HEYY$GPGGA,170329.000,4025.3460,N,07957.0224,W,2,10,0.89,246.4,M,-333.0,M,0000,0000*5

HEADER CONFIRMED

PACKET CONTAINS NMEA DATA

SENDING PACKET... DONE!

RSSI: -86

<----------  END TRANSMISSION  ---------->



<---------- BEGIN TRANSMISSION ---------->

GOT REPLY: HEYY$GPGGA,170333.000,4025.3432,N,07957.0204,W,2,10,0.89,247.0,M,-3$GPGGA,170334.000,

HEADER CONFIRMED

PACKET CONTAINS NMEA DATA

SENDING PACKET... DONE!

RSSI: -78

<----------  END TRANSMISSION  ---------->



<---------- BEGIN TRANSMISSION ---------->

GOT REPLY: HEYY$GPGGA,170337.000,4025.3402,N,07957.0185,W,2,10,0.89,247.6,M,-3$GPGGA,170338.000,

HEADER CONFIRMED

PACKET CONTAINS NMEA DATA

SENDING PACKET... DONE!

RSSI: -89

<----------  END TRANSMISSION  ---------->



<---------- BEGIN TRANSMISSION ---------->

GOT REPLY: HEYY$GPGGA,170341.000,4025.3375,N,07957.0162,W,2,10,0.89,248.4,M,-3GSA,A,3,18,22,14,3

HEADER CONFIRMED

PACKET CONTAINS NMEA DATA

SENDING PACKET... DONE!

RSSI: -86

<----------  END TRANSMISSION  ---------->



<---------- BEGIN TRANSMISSION ---------->

GOT REPLY: HEYY$GPGGA,170348.000,4025.3327,N,07957.0121,W,2,10,0.89,249.8,M,-320,N,07957.0116,W,

HEADER CONFIRMED

PACKET CONTAINS NMEA DATA

SENDING PACKET... DONE!

RSSI: -88

<----------  END TRANSMISSION  ---------->



<---------- BEGIN TRANSMISSION ---------->

GOT REPLY: HEYY$GPGGA,170352.000,4025.3297,N,07957.0104,W,2,10,0.89,249.9,M,-3,030219,,,D*7E



HEADER CONFIRMED

PACKET CONTAINS NMEA DATA

SENDING PACKET... DONE!

RSSI: -82

<----------  END TRANSMISSION  ---------->



<---------- BEGIN TRANSMISSION ---------->

GOT REPLY: HEYY$GPGGA,170356.000,4025.3270,N,07957.0087,W,2,10,0.89,249.9,M,-3.000,A,4025.3262,N

HEADER CONFIRMED

PACKET CONTAINS NMEA DATA

SENDING PACKET... DONE!

RSSI: -84

<----------  END TRANSMISSION  ---------->



<---------- BEGIN TRANSMISSION ---------->

GOT REPLY: HEYY$GPGGA,170400.000,4025.3241,N,07957.0070,W,2,10,0.89,249.9,M,-3A,3,18,22,14,31,10

HEADER CONFIRMED

PACKET CONTAINS NMEA DATA

SENDING PACKET... DONE!

RSSI: -87

<----------  END TRANSMISSION  ---------->




<---------- BEGIN TRANSMISSION ---------->

GOT REPLY: HEYY$GPGGA,170415.000,4025.3144,N,07956.9998,W,2,10,0.89,248.1,M,-3$GPGGA,170416.000,

HEADER CONFIRMED

PACKET CONTAINS NMEA DATA

SENDING PACKET... DONE!

RSSI: -78

<----------  END TRANSMISSION  ---------->



<---------- BEGIN TRANSMISSION ---------->

GOT REPLY: HEYY$GPGGA,170419.000,4025.3115,N,07956.9980,W,2,10,0.89,247.9,M,-3$GPGGA,170420.000,

HEADER CONFIRMED

PACKET CONTAINS NMEA DATA

SENDING PACKET... DONE!

RSSI: -77

<----------  END TRANSMISSION  ---------->



<---------- BEGIN TRANSMISSION ---------->

GOT REPLY: HEYY$GPGGA,170423.000,4025.3086,N,07956.9961,W,2,10,0.89,247.5,M,-38,W,2,10,0.89,247.

HEADER CONFIRMED

PACKET CONTAINS NMEA DATA

SENDING PACKET... DONE!

RSSI: -80

<----------  END TRANSMISSION  ---------->



<---------- BEGIN TRANSMISSION ---------->

GOT REPLY: HEYY$GPGGA,170427.000,4025.3063,N,07956.9948,W,2,10,0.89,247.1,M,-33055,N,07956.9943,

HEADER CONFIRMED

PACKET CONTAINS NMEA DATA

SENDING PACKET... DONE!

RSSI: -73

<----------  END TRANSMISSION  ---------->



<---------- BEGIN TRANSMISSION ---------->

GOT REPLY: HEYY$GPGGA,170431.000,4025.3033,N,07956.9931,W,2,10,0.89,247.1,M,-3$GPGGA,170432.000,

HEADER CONFIRMED

PACKET CONTAINS NMEA DATA

SENDING PACKET... DONE!

RSSI: -74

<----------  END TRANSMISSION  ---------->



<---------- BEGIN TRANSMISSION ---------->

GOT REPLY: HEYY$GPGGA,170435.000,4025.3004,N,07956.9912,W,2,10,0.89,247.4,M,-32998,N,07956.9907,

HEADER CONFIRMED

PACKET CONTAINS NMEA DATA

SENDING PACKET... DONE!

RSSI: -70

<----------  END TRANSMISSION  ---------->



<---------- BEGIN TRANSMISSION ---------->

GOT REPLY: HEYY$GPGGA,170439.000,4025.2977,N,07956.9889,W,2,10,0.89,247.3,M,-3$GPGGA,170440.000,

HEADER CONFIRMED

PACKET CONTAINS NMEA DATA

SENDING PACKET... DONE!

RSSI: -75

<----------  END TRANSMISSION  ---------->



<---------- BEGIN TRANSMISSION ---------->

GOT REPLY: HEYY$GPGGA,170443.000,4025.2949,N,07956.9866,W,2,10,0.89,247.1,M,-3,22,14,31,10,26,25

HEADER CONFIRMED

PACKET CONTAINS NMEA DATA

SENDING PACKET... DONE!

RSSI: -65

<----------  END TRANSMISSION  ---------->



<---------- BEGIN TRANSMISSION ---------->

GOT REPLY: HEYY$GPGGA,170449.000,4025.2903,N,07956.9840,W,2,10,0.89,247.6,M,-3$GPGGA,170450.000,

HEADER CONFIRMED

PACKET CONTAINS NMEA DATA

SENDING PACKET... DONE!

RSSI: -67

<----------  END TRANSMISSION  ---------->



<---------- BEGIN TRANSMISSION ---------->

GOT REPLY: HEYY$GPGGA,170453.000,4025.2873,N,07956.9822,W,2,10,0.89,248.0,M,-3,4025.2865,N,07956

HEADER CONFIRMED

PACKET CONTAINS NMEA DATA

SENDING PACKET... DONE!

RSSI: -67

<----------  END TRANSMISSION  ---------->



<---------- BEGIN TRANSMISSION ---------->

GOT REPLY: HEYY$GPGGA,170457.000,4025.2842,N,07956.9805,W,2,10,0.89,248.3,M,-36.9800,W,2,10,0.89

HEADER CONFIRMED

PACKET CONTAINS NMEA DATA

SENDING PACKET... DONE!

RSSI: -67

<----------  END TRANSMISSION  ---------->



<---------- BEGIN TRANSMISSION ---------->

GOT REPLY: HEYY$GPGGA,170501.000,4025.2811,N,07956.9785,W,2,10,0.89,248.4,M,-3$GPGGA,170502.000,

HEADER CONFIRMED

PACKET CONTAINS NMEA DATA

SENDING PACKET... DONE!

RSSI: -65

<----------  END TRANSMISSION  ---------->



<---------- BEGIN TRANSMISSION ---------->

GOT REPLY: HEYY$GPGGA,170505.000,4025.2780,N,07956.9767,W,2,10,0.89,248.2,M,-3.3,M,-33.0,M,0000,

HEADER CONFIRMED

PACKET CONTAINS NMEA DATA

SENDING PACKET... DONE!

RSSI: -60

<----------  END TRANSMISSION  ---------->



<---------- BEGIN TRANSMISSION ---------->

GOT REPLY: HEYY$GPGGA,170509.000,4025.2751,N,07956.9751,W,2,10,0.89,248.3,M,-30,4025.2745,N,0795

HEADER CONFIRMED

PACKET CONTAINS NMEA DATA

SENDING PACKET... DONE!

RSSI: -59

<----------  END TRANSMISSION  ---------->



<---------- BEGIN TRANSMISSION ---------->

GOT REPLY: HEYY$GPGGA,170513.000,4025.2727,N,07956.9729,W,2,10,0.89,248.1,M,-3$GPGGA,170514.000,

HEADER CONFIRMED

PACKET CONTAINS NMEA DATA

SENDING PACKET... DONE!

RSSI: -56

<----------  END TRANSMISSION  ---------->



<---------- BEGIN TRANSMISSION ---------->

GOT REPLY: HEYY$GPGGA,170517.000,4025.2698,N,07956.9715,W,2,10,0.89,248.2,M,-3,2,10,0.89,248.3,M

HEADER CONFIRMED

PACKET CONTAINS NMEA DATA

SENDING PACKET... DONE!

RSSI: -58

<----------  END TRANSMISSION  ---------->



<---------- BEGIN TRANSMISSION ---------->

GOT REPLY: HEYY$GPGGA,170521.000,4025.2667,N,07956.9695,W,2,10,0.89,248.3,M,-3,170522.000,4025.2

HEADER CONFIRMED

PACKET CONTAINS NMEA DATA

SENDING PACKET... DONE!

RSSI: -57

<----------  END TRANSMISSION  ---------->



<---------- BEGIN TRANSMISSION ---------->

GOT REPLY: HEYY$GPGGA,170525.000,4025.2635,N,07956.9676,W,2,10,0.89,248.5,M,-3$GPGGA,170526.000,

HEADER CONFIRMED

PACKET CONTAINS NMEA DATA

SENDING PACKET... DONE!

RSSI: -54

<----------  END TRANSMISSION  ---------->



<---------- BEGIN TRANSMISSION ---------->

GOT REPLY: HEYY$GPGGA,170529.000,4025.2605,N,07956.9657,W,2,10,0.89,248.8,M,-3000,0000*59



HEADER CONFIRMED

PACKET CONTAINS NMEA DATA

SENDING PACKET... DONE!

RSSI: -51

<----------  END TRANSMISSION  ---------->



<---------- BEGIN TRANSMISSION ---------->

GOT REPLY: HEYY$GPGGA,170533.000,4025.2575,N,07956.9638,W,2,10,0.89,249.3,M,-3A,170534.000,4025.

HEADER CONFIRMED

PACKET CONTAINS NMEA DATA

SENDING PACKET... DONE!

RSSI: -45

<----------  END TRANSMISSION  ---------->



<---------- BEGIN TRANSMISSION ---------->

GOT REPLY: HEYY$GPGGA,170537.000,4025.2542,N,07956.9618,W,2,10,0.89,249.3,M,-3$GPGGA,170538.000,

HEADER CONFIRMED

PACKET CONTAINS NMEA DATA

SENDING PACKET... DONE!

RSSI: -47

<----------  END TRANSMISSION  ---------->



<---------- BEGIN TRANSMISSION ---------->

GOT REPLY: HEYY$GPGGA,170541.000,4025.2508,N,07956.9600,W,2,10,0.89,249.4,M,-3249.4,M,-33.0,M,00

HEADER CONFIRMED

PACKET CONTAINS NMEA DATA

SENDING PACKET... DONE!

RSSI: -38

<----------  END TRANSMISSION  ---------->



<---------- BEGIN TRANSMISSION ---------->

GOT REPLY: HEYY$GPGGA,170545.000,4025.2483,N,07956.9576,W,2,10,0.89,249.3,M,-346.000,4025.2480,N

HEADER CONFIRMED

PACKET CONTAINS NMEA DATA

SENDING PACKET... DONE!

RSSI: -26

<----------  END TRANSMISSION  ---------->



<---------- BEGIN TRANSMISSION ---------->

GOT REPLY: HEYY$GPGGA,170549.000,4025.2477,N,07956.9568,W,2,10,0.89,249.1,M,-3$GPGGA,170550.000,

HEADER CONFIRMED

PACKET CONTAINS NMEA DATA

SENDING PACKET... DONE!

RSSI: -26

<----------  END TRANSMISSION  ---------->



<---------- BEGIN TRANSMISSION ---------->

GOT REPLY: HEYY$GPGGA,170553.000,4025.2483,N,07956.9557,W,2,10,0.89,248.2,M,-3,4025.2483,N,07956

HEADER CONFIRMED

PACKET CONTAINS NMEA DATA

SENDING PACKET... DONE!

RSSI: -31

<----------  END TRANSMISSION  ---------->



<---------- BEGIN TRANSMISSION ---------->

GOT REPLY: HEYY$GPGGA,170557.000,4025.2483,N,07956.9554,W,2,09,0.96,248.2,M,-3,07956.9554,W,2,09

HEADER CONFIRMED

PACKET CONTAINS NMEA DATA

SENDING PACKET... DONE!

RSSI: -18

<----------  END TRANSMISSION  ---------->



<---------- BEGIN TRANSMISSION ---------->

GOT REPLY: HEYY$GPGGA,170601.000,4025.2483,N,07956.9555,W,2,10,0.89,248.2,M,-3$GPGGA,170602.000,

HEADER CONFIRMED

PACKET CONTAINS NMEA DATA

SENDING PACKET... DONE!

RSSI: -43

<----------  END TRANSMISSION  ---------->



<---------- BEGIN TRANSMISSION ---------->

GOT REPLY: HEYY$GPGGA,170605.000,4025.2482,N,07956.9553,W,2,10,0.89,248.3,M,-38.3,M,-33.0,M,0000

HEADER CONFIRMED

PACKET CONTAINS NMEA DATA

SENDING PACKET... DONE!

RSSI: -60

<----------  END TRANSMISSION  ---------->



