

<---------- BEGIN TRANSMISSION ---------->

GOT REPLY: HEYY$GPGGA,173337.000,4025.2956,N,07956.9880,W,1,06,1.44,246.4,M,-3GA,173338.000,4025

HEADER CONFIRMED

PACKET CONTAINS NMEA DATA

SENDING PACKET... DONE!

RSSI: -28

<----------  END TRANSMISSION  ---------->



<---------- BEGIN TRANSMISSION ---------->

GOT REPLY: HEYY$GPGGA,173341.000,4025.2957,N,07956.9879,W,1,06,1.45,246.5,M,-300,4025.2957,N,079

HEADER CONFIRMED

PACKET CONTAINS NMEA DATA

SENDING PACKET... DONE!

RSSI: -30

<----------  END TRANSMISSION  ---------->



<---------- BEGIN TRANSMISSION ---------->

GOT REPLY: HEYY$GPGGA,173345.000,4025.2956,N,07956.9877,W,1,06,1.45,246.5,M,-3PGGA,173346.000,40

HEADER CONFIRMED

PACKET CONTAINS NMEA DATA

SENDING PACKET... DONE!

RSSI: -31

<----------  END TRANSMISSION  ---------->



<---------- BEGIN TRANSMISSION ---------->

GOT REPLY: HEYY$GPGGA,173349.000,4025.2956,N,07956.9880,W,1,07,1.33,246.5,M,-3$GPGGA,173350.000,

HEADER CONFIRMED

PACKET CONTAINS NMEA DATA

SENDING PACKET... DONE!

RSSI: -28

<----------  END TRANSMISSION  ---------->



<---------- BEGIN TRANSMISSION ---------->

GOT REPLY: HEYY$GPGGA,173353.000,4025.2960,N,07956.9886,W,1,07,1.33,246.3,M,-3$GPGGA,173354.000,

HEADER CONFIRMED

PACKET CONTAINS NMEA DATA

SENDING PACKET... DONE!

RSSI: -47

<----------  END TRANSMISSION  ---------->



<---------- BEGIN TRANSMISSION ---------->

GOT REPLY: HEYY$GPGGA,173357.000,4025.2981,N,07956.9899,W,1,07,1.33,244.7,M,-3173358.000,4025.29

HEADER CONFIRMED

PACKET CONTAINS NMEA DATA

SENDING PACKET... DONE!

RSSI: -41

<----------  END TRANSMISSION  ---------->



<---------- BEGIN TRANSMISSION ---------->

GOT REPLY: HEYY$GPGGA,173401.000,4025.3007,N,07956.9918,W,1,07,1.33,243.2,M,-3GGA,173402.000,402

HEADER CONFIRMED

PACKET CONTAINS NMEA DATA

SENDING PACKET... DONE!

RSSI: -57

<----------  END TRANSMISSION  ---------->



<---------- BEGIN TRANSMISSION ---------->

GOT REPLY: HEYY$GPGGA,173405.000,4025.3030,N,07956.9937,W,1,07,1.59,243.0,M,-3$GPGGA,173406.000,

HEADER CONFIRMED

PACKET CONTAINS NMEA DATA

SENDING PACKET... DONE!

RSSI: -59

<----------  END TRANSMISSION  ---------->



<---------- BEGIN TRANSMISSION ---------->

GOT REPLY: HEYY$GPGGA,173409.000,4025.3053,N,07956.9960,W,1,07,1.33,243.6,M,-3PGGA,173410.000,40

HEADER CONFIRMED

PACKET CONTAINS NMEA DATA

SENDING PACKET... DONE!

RSSI: -58

<----------  END TRANSMISSION  ---------->



<---------- BEGIN TRANSMISSION ---------->

GOT REPLY: HEYY$GPGGA,173413.000,4025.3077,N,07956.9981,W,1,07,1.33,245.3,M,-3$GPGGA,173414.000,

HEADER CONFIRMED

PACKET CONTAINS NMEA DATA

SENDING PACKET... DONE!

RSSI: -62

<----------  END TRANSMISSION  ---------->



<---------- BEGIN TRANSMISSION ---------->

GOT REPLY: HEYY$GPGGA,173417.000,4025.3100,N,07957.0003,W,1,07,1.33,247.1,M,-3173418.000,4025.31

HEADER CONFIRMED

PACKET CONTAINS NMEA DATA

SENDING PACKET... DONE!

RSSI: -62

<----------  END TRANSMISSION  ---------->



<---------- BEGIN TRANSMISSION ---------->

GOT REPLY: HEYY$GPGGA,173421.000,4025.3128,N,07957.0021,W,1,07,1.33,248.1,M,-3$GPGGA,173422.000,

HEADER CONFIRMED

PACKET CONTAINS NMEA DATA

SENDING PACKET... DONE!

RSSI: -61

<----------  END TRANSMISSION  ---------->



<---------- BEGIN TRANSMISSION ---------->

GOT REPLY: HEYY$GPGGA,173425.000,4025.3151,N,07957.0045,W,1,07,1.33,248.8,M,-3,4025.3157,N,07957

HEADER CONFIRMED

PACKET CONTAINS NMEA DATA

SENDING PACKET... DONE!

RSSI: -66

<----------  END TRANSMISSION  ---------->



<---------- BEGIN TRANSMISSION ---------->

GOT REPLY: HEYY$GPGGA,173429.000,4025.3176,N,07957.0061,W,1,07,1.33,248.5,M,-3GGA,173430.000,402

HEADER CONFIRMED

PACKET CONTAINS NMEA DATA

SENDING PACKET... DONE!

RSSI: -75

<----------  END TRANSMISSION  ---------->



<---------- BEGIN TRANSMISSION ---------->

GOT REPLY: HEYY$GPGGA,173433.000,4025.3200,N,07957.0080,W,1,08,1.20,248.4,M,-3$GPGGA,173434.000,

HEADER CONFIRMED

PACKET CONTAINS NMEA DATA

SENDING PACKET... DONE!

RSSI: -70

<----------  END TRANSMISSION  ---------->



<---------- BEGIN TRANSMISSION ---------->

GOT REPLY: HEYY$GPGGA,173437.000,4025.3227,N,07957.0098,W,1,08,1.20,248.3,M,-38.000,4025.3234,N,

HEADER CONFIRMED

PACKET CONTAINS NMEA DATA

SENDING PACKET... DONE!

RSSI: -74

<----------  END TRANSMISSION  ---------->



<---------- BEGIN TRANSMISSION ---------->

GOT REPLY: HEYY$GPGGA,173441.000,4025.3255,N,07957.0116,W,1,08,1.20,248.7,M,-3$GPGGA,173442.000,

HEADER CONFIRMED

PACKET CONTAINS NMEA DATA

SENDING PACKET... DONE!

RSSI: -84

<----------  END TRANSMISSION  ---------->



<---------- BEGIN TRANSMISSION ---------->

GOT REPLY: HEYY$GPGGA,173445.000,4025.3285,N,07957.0129,W,2,08,1.20,249.6,M,-3N,07957.0134,W,2,0

HEADER CONFIRMED

PACKET CONTAINS NMEA DATA

SENDING PACKET... DONE!

RSSI: -74

<----------  END TRANSMISSION  ---------->



<---------- BEGIN TRANSMISSION ---------->

GOT REPLY: HEYY$GPGGA,173449.000,4025.3312,N,07957.0147,W,2,08,1.20,250.4,M,-3000,4025.3318,N,07

HEADER CONFIRMED

PACKET CONTAINS NMEA DATA

SENDING PACKET... DONE!

RSSI: -81

<----------  END TRANSMISSION  ---------->



<---------- BEGIN TRANSMISSION ---------->

GOT REPLY: HEYY$GPGGA,173453.000,4025.3338,N,07957.0162,W,2,08,1.20,250.5,M,-3000,4025.3345,N,07

HEADER CONFIRMED

PACKET CONTAINS NMEA DATA

SENDING PACKET... DONE!

RSSI: -75

<----------  END TRANSMISSION  ---------->



<---------- BEGIN TRANSMISSION ---------->

GOT REPLY: HEYY$GPGGA,173457.000,4025.3368,N,07957.0181,W,2,08,1.20,250.5,M,-3173458.000,4025.33

HEADER CONFIRMED

PACKET CONTAINS NMEA DATA

SENDING PACKET... DONE!

RSSI: -98

<----------  END TRANSMISSION  ---------->



<---------- BEGIN TRANSMISSION ---------->

GOT REPLY: HEYY$GPGGA,173502.000,4025.3394,N,07957.0211,W,2,08,1.20,250.4,M,-3M,0000,0000*54



HEADER CONFIRMED

PACKET CONTAINS NMEA DATA

SENDING PACKET... DONE!

RSSI: -83

<----------  END TRANSMISSION  ---------->



<---------- BEGIN TRANSMISSION ---------->

GOT REPLY: HEYY$GPGGA,173506.000,4025.3410,N,07957.0220,W,2,08,1.20,250.7,M,-3,-33.0,M,0000,0000

HEADER CONFIRMED

PACKET CONTAINS NMEA DATA

SENDING PACKET... DONE!

RSSI: -78

<----------  END TRANSMISSION  ---------->



<---------- BEGIN TRANSMISSION ---------->

GOT REPLY: HEYY$GPGGA,173510.000,4025.3440,N,07957.0234,W,2,08,1.20,250.8,M,-3$GPGGA,173511.000,

HEADER CONFIRMED

PACKET CONTAINS NMEA DATA

SENDING PACKET... DONE!

RSSI: -79

<----------  END TRANSMISSION  ---------->



<---------- BEGIN TRANSMISSION ---------->

GOT REPLY: HEYY$GPGGA,173514.000,4025.3471,N,07957.0249,W,2,08,1.20,250.5,M,-3$GPGGA,173515.000,

HEADER CONFIRMED

PACKET CONTAINS NMEA DATA

SENDING PACKET... DONE!

RSSI: -81

<----------  END TRANSMISSION  ---------->



<---------- BEGIN TRANSMISSION ---------->

GOT REPLY: HEYY$GPGGA,173524.000,4025.3528,N,07957.0288,W,2,08,1.20,250.6,M,-3$GPGGA,173525.000,

HEADER CONFIRMED

PACKET CONTAINS NMEA DATA

SENDING PACKET... DONE!

RSSI: -91

<----------  END TRANSMISSION  ---------->



<---------- BEGIN TRANSMISSION ---------->

GOT REPLY: HEYY$GPGGA,173528.000,4025.3532,N,07957.0294,W,2,08,1.20,251.5,M,-3,32,22,14,31,10,03

HEADER CONFIRMED

PACKET CONTAINS NMEA DATA

SENDING PACKET... DONE!

RSSI: -80

<----------  END TRANSMISSION  ---------->



<---------- BEGIN TRANSMISSION ---------->

GOT REPLY: HEYY$GPGGA,173534.000,4025.3569,N,07957.0319,W,2,08,1.20,251.3,M,-3$GPGGA,173535.000,

HEADER CONFIRMED

PACKET CONTAINS NMEA DATA

SENDING PACKET... DONE!

RSSI: -104

<----------  END TRANSMISSION  ---------->



<---------- BEGIN TRANSMISSION ---------->

GOT REPLY: HEYY$GPGGA,173538.000,4025.3595,N,07957.0338,W,2,08,1.20,250.7,M,-3$GPGGA,173539.000,

HEADER CONFIRMED

PACKET CONTAINS NMEA DATA

SENDING PACKET... DONE!

RSSI: -84

<----------  END TRANSMISSION  ---------->



<---------- BEGIN TRANSMISSION ---------->

GOT REPLY: HEYY$GPGGA,173542.000,4025.3611,N,07957.0349,W,2,08,1.20,250.3,M,-350.1,M,-33.0,M,000

HEADER CONFIRMED

PACKET CONTAINS NMEA DATA

SENDING PACKET... DONE!

RSSI: -84

<----------  END TRANSMISSION  ---------->



<---------- BEGIN TRANSMISSION ---------->

GOT REPLY: HEYY$GPGGA,173546.000,4025.3637,N,07957.0361,W,2,08,1.20,249.5,M,-3$GPGGA,173547.000,

HEADER CONFIRMED

PACKET CONTAINS NMEA DATA

SENDING PACKET... DONE!

RSSI: -81

<----------  END TRANSMISSION  ---------->



<---------- BEGIN TRANSMISSION ---------->

GOT REPLY: HEYY$GPGGA,173550.000,4025.3664,N,07957.0373,W,2,08,1.20,248.9,M,-3$GPGGA,173551.000,

HEADER CONFIRMED

PACKET CONTAINS NMEA DATA

SENDING PACKET... DONE!

RSSI: -87

<----------  END TRANSMISSION  ---------->



<---------- BEGIN TRANSMISSION ---------->

GOT REPLY: HEYY$GPGGA,173554.000,4025.3692,N,07957.0385,W,2,08,1.20,248.2,M,-348.1,M,-33.0,M,000

HEADER CONFIRMED

PACKET CONTAINS NMEA DATA

SENDING PACKET... DONE!

RSSI: -84

<----------  END TRANSMISSION  ---------->



<---------- BEGIN TRANSMISSION ---------->

GOT REPLY: HEYY$GPGGA,173558.000,4025.3715,N,07957.0396,W,2,08,1.20,247.8,M,-30,247.6,M,-33.0,M,

HEADER CONFIRMED

PACKET CONTAINS NMEA DATA

SENDING PACKET... DONE!

RSSI: -81

<----------  END TRANSMISSION  ---------->



<---------- BEGIN TRANSMISSION ---------->

GOT REPLY: HEYY$GPGGA,173602.000,4025.3742,N,07957.0417,W,2,08,1.20,247.1,M,-3$GPGGA,173603.000,

HEADER CONFIRMED

PACKET CONTAINS NMEA DATA

SENDING PACKET... DONE!

RSSI: -87

<----------  END TRANSMISSION  ---------->



<---------- BEGIN TRANSMISSION ---------->

GOT REPLY: HEYY$GPGGA,173606.000,4025.3769,N,07957.0437,W,2,08,1.20,246.2,M,-3$GPGGA,173607.000,

HEADER CONFIRMED

PACKET CONTAINS NMEA DATA

SENDING PACKET... DONE!

RSSI: -84

<----------  END TRANSMISSION  ---------->



<---------- BEGIN TRANSMISSION ---------->

GOT REPLY: HEYY$GPGGA,173610.000,4025.3788,N,07957.0461,W,2,08,1.20,245.0,M,-37,M,-33.0,M,0000,0

HEADER CONFIRMED

PACKET CONTAINS NMEA DATA

SENDING PACKET... DONE!

RSSI: -90

<----------  END TRANSMISSION  ---------->



<---------- BEGIN TRANSMISSION ---------->

GOT REPLY: HEYY$GPGGA,173614.000,4025.3797,N,07957.0470,W,2,08,1.54,243.6,M,-3,243.4,M,-33.0,M,0

HEADER CONFIRMED

PACKET CONTAINS NMEA DATA

SENDING PACKET... DONE!

RSSI: -87

<----------  END TRANSMISSION  ---------->



<---------- BEGIN TRANSMISSION ---------->

GOT REPLY: HEYY$GPGGA,173618.000,4025.3823,N,07957.0488,W,2,08,1.20,242.9,M,-3$GPGGA,173619.000,

HEADER CONFIRMED

PACKET CONTAINS NMEA DATA

SENDING PACKET... DONE!

RSSI: -90

<----------  END TRANSMISSION  ---------->



<---------- BEGIN TRANSMISSION ---------->

GOT REPLY: HEYY$GPGGA,173622.000,4025.3846,N,07957.0498,W,2,08,1.20,242.2,M,-3$GPGSA,A,3,26,32,2

HEADER CONFIRMED

PACKET CONTAINS NMEA DATA

SENDING PACKET... DONE!

RSSI: -104

<----------  END TRANSMISSION  ---------->




<---------- BEGIN TRANSMISSION ---------->

GOT REPLY: HEYY$GPGGA,173634.000,4025.3878,N,07957.0525,W,2,08,1.20,242.1,M,-3$GPGGA,173635.000,

HEADER CONFIRMED

PACKET CONTAINS NMEA DATA

SENDING PACKET... DONE!

RSSI: -89

<----------  END TRANSMISSION  ---------->



<---------- BEGIN TRANSMISSION ---------->

GOT REPLY: HEYY$GPGGA,173638.000,4025.3879,N,07957.0525,W,2,08,1.20,242.1,M,-3$GPGGA,173639.000,

HEADER CONFIRMED

PACKET CONTAINS NMEA DATA

SENDING PACKET... DONE!

RSSI: -90

<----------  END TRANSMISSION  ---------->



<---------- BEGIN TRANSMISSION ---------->

GOT REPLY: HEYY$GPGGA,173642.000,4025.3902,N,07957.0547,W,2,08,1.20,241.0,M,-357.0553,W,2,08,1.2

HEADER CONFIRMED

PACKET CONTAINS NMEA DATA

SENDING PACKET... DONE!

RSSI: -91

<----------  END TRANSMISSION  ---------->



<---------- BEGIN TRANSMISSION ---------->

GOT REPLY: HEYY$GPGGA,173652.000,4025.3931,N,07957.0581,W,2,08,1.20,240.9,M,-3$GPGGA,173653.000,

HEADER CONFIRMED

PACKET CONTAINS NMEA DATA

SENDING PACKET... DONE!

RSSI: -101

<----------  END TRANSMISSION  ---------->



<---------- BEGIN TRANSMISSION ---------->

GOT REPLY: HEYY$GPGGA,173656.000,4025.3931,N,07957.0579,W,2,08,1.20,240.9,M,-3657.000,4025.3932,

HEADER CONFIRMED

PACKET CONTAINS NMEA DATA

SENDING PACKET... DONE!

RSSI: -102

<----------  END TRANSMISSION  ---------->



<---------- BEGIN TRANSMISSION ---------->

GOT REPLY: HEYY$GPGGA,173700.000,4025.3956,N,07957.0588,W,2,08,1.20,241.3,M,-3$GPGGA,173701.000,

HEADER CONFIRMED

PACKET CONTAINS NMEA DATA

SENDING PACKET... DONE!

RSSI: -91

<----------  END TRANSMISSION  ---------->



<---------- BEGIN TRANSMISSION ---------->

GOT REPLY: HEYY$GPGGA,173704.000,4025.3984,N,07957.0596,W,2,08,1.20,242.0,M,-3,241.9,M,-33.0,M,0

HEADER CONFIRMED

PACKET CONTAINS NMEA DATA

SENDING PACKET... DONE!

RSSI: -92

<----------  END TRANSMISSION  ---------->



<---------- BEGIN TRANSMISSION ---------->

GOT REPLY: HEYY$GPGGA,173708.000,4025.3988,N,07957.0594,W,2,08,1.20,242.1,M,-3709.000,4025.3988,

HEADER CONFIRMED

PACKET CONTAINS NMEA DATA

SENDING PACKET... DONE!

RSSI: -97

<----------  END TRANSMISSION  ---------->



<---------- BEGIN TRANSMISSION ---------->

GOT REPLY: HEYY$GPGGA,173712.000,4025.4010,N,07957.0609,W,2,08,1.20,242.1,M,-307957.0613,W,2,08,

HEADER CONFIRMED

PACKET CONTAINS NMEA DATA

SENDING PACKET... DONE!

RSSI: -103

<----------  END TRANSMISSION  ---------->



<---------- BEGIN TRANSMISSION ---------->

GOT REPLY: HEYY$GPGGA,173722.000,4025.4061,N,07957.0640,W,2,08,1.54,242.6,M,-3$GPGGA,173723.000,

HEADER CONFIRMED

PACKET CONTAINS NMEA DATA

SENDING PACKET... DONE!

RSSI: -89

<----------  END TRANSMISSION  ---------->



<---------- BEGIN TRANSMISSION ---------->

GOT REPLY: HEYY$GPGGA,173726.000,4025.4060,N,07957.0637,W,2,08,1.20,242.5,M,-3$GPGGA,173727.000,

HEADER CONFIRMED

PACKET CONTAINS NMEA DATA

SENDING PACKET... DONE!

RSSI: -87

<----------  END TRANSMISSION  ---------->



<---------- BEGIN TRANSMISSION ---------->

GOT REPLY: HEYY$GPGGA,173730.000,4025.4081,N,07957.0646,W,2,08,1.20,242.3,M,-37,N,07957.0650,W,2

HEADER CONFIRMED

PACKET CONTAINS NMEA DATA

SENDING PACKET... DONE!

RSSI: -98

<----------  END TRANSMISSION  ---------->



<---------- BEGIN TRANSMISSION ---------->

GOT REPLY: HEYY$GPGGA,173734.000,4025.4108,N,07957.0660,W,2,08,1.20,242.4,M,-3,0000,0000*52



HEADER CONFIRMED

PACKET CONTAINS NMEA DATA

SENDING PACKET... DONE!

RSSI: -89

<----------  END TRANSMISSION  ---------->



<---------- BEGIN TRANSMISSION ---------->

GOT REPLY: HEYY$GPGGA,173738.000,4025.4131,N,07957.0675,W,2,08,1.20,242.1,M,-3$GPGGA,173739.000,

HEADER CONFIRMED

PACKET CONTAINS NMEA DATA

SENDING PACKET... DONE!

RSSI: -104

<----------  END TRANSMISSION  ---------->



<---------- BEGIN TRANSMISSION ---------->

GOT REPLY: HEYY$GPGGA,173742.000,4025.4157,N,07957.0692,W,2,08,1.20,242.1,M,-3$GPGGA,173743.000,

HEADER CONFIRMED

PACKET CONTAINS NMEA DATA

SENDING PACKET... DONE!

RSSI: -98

<----------  END TRANSMISSION  ---------->



<---------- BEGIN TRANSMISSION ---------->

GOT REPLY: HEYY$GPGGA,173752.000,4025.4207,N,07957.0731,W,2,08,1.20,241.9,M,-3$GPGGA,173753.000,

HEADER CONFIRMED

PACKET CONTAINS NMEA DATA

SENDING PACKET... DONE!

RSSI: -90

<----------  END TRANSMISSION  ---------->



<---------- BEGIN TRANSMISSION ---------->

GOT REPLY: HEYY$GPGGA,173756.000,4025.4206,N,07957.0732,W,2,08,1.20,242.3,M,-30,0000*55



HEADER CONFIRMED

PACKET CONTAINS NMEA DATA

SENDING PACKET... DONE!

RSSI: -90

<----------  END TRANSMISSION  ---------->



<---------- BEGIN TRANSMISSION ---------->

GOT REPLY: HEYY$GPGGA,173806.000,4025.4248,N,07957.0758,W,2,08,1.20,242.5,M,-3$GPGGA,173807.000,

HEADER CONFIRMED

PACKET CONTAINS NMEA DATA

SENDING PACKET... DONE!

RSSI: -97

<----------  END TRANSMISSION  ---------->



<---------- BEGIN TRANSMISSION ---------->

GOT REPLY: HEYY$GPGGA,173810.000,4025.4249,N,07957.0757,W,2,08,1.20,242.5,M,-30000,0000*5F



HEADER CONFIRMED

PACKET CONTAINS NMEA DATA

SENDING PACKET... DONE!

RSSI: -98

<----------  END TRANSMISSION  ---------->



<---------- BEGIN TRANSMISSION ---------->

GOT REPLY: HEYY$GPGGA,173814.000,4025.4251,N,07957.0755,W,2,08,1.20,242.5,M,-373815.000,4025.425

HEADER CONFIRMED

PACKET CONTAINS NMEA DATA

SENDING PACKET... DONE!

RSSI: -98

<----------  END TRANSMISSION  ---------->



<---------- BEGIN TRANSMISSION ---------->

GOT REPLY: HEYY$GPGGA,173818.000,4025.4253,N,07957.0754,W,2,08,1.54,242.5,M,-3$GPGGA,173819.000,

HEADER CONFIRMED

PACKET CONTAINS NMEA DATA

SENDING PACKET... DONE!

RSSI: -91

<----------  END TRANSMISSION  ---------->



<---------- BEGIN TRANSMISSION ---------->

GOT REPLY: HEYY$GPGGA,173822.000,4025.4253,N,07957.0755,W,2,08,1.20,242.5,M,-33,26,32,22,14,31,1

HEADER CONFIRMED

PACKET CONTAINS NMEA DATA

SENDING PACKET... DONE!

RSSI: -91

<----------  END TRANSMISSION  ---------->



<---------- BEGIN TRANSMISSION ---------->

GOT REPLY: HEYY$GPGGA,173828.000,4025.4271,N,07957.0766,W,2,08,1.20,242.5,M,-3$GPGGA,173829.000,

HEADER CONFIRMED

PACKET CONTAINS NMEA DATA

SENDING PACKET... DONE!

RSSI: -89

<----------  END TRANSMISSION  ---------->



<---------- BEGIN TRANSMISSION ---------->

GOT REPLY: HEYY$GPGGA,173832.000,4025.4289,N,07957.0782,W,2,08,1.20,242.5,M,-384,W,2,08,1.20,242

HEADER CONFIRMED

PACKET CONTAINS NMEA DATA

SENDING PACKET... DONE!

RSSI: -100

<----------  END TRANSMISSION  ---------->



<---------- BEGIN TRANSMISSION ---------->

GOT REPLY: HEYY$GPGGA,173842.000,4025.4323,N,07957.0795,W,2,08,1.20,242.4,M,-3$GPGGA,173843.000,

HEADER CONFIRMED

PACKET CONTAINS NMEA DATA

SENDING PACKET... DONE!

RSSI: -90

<----------  END TRANSMISSION  ---------->



<---------- BEGIN TRANSMISSION ---------->

GOT REPLY: HEYY$GPGGA,173852.000,4025.4362,N,07957.0825,W,2,08,1.20,242.5,M,-3$GPGGA,173853.000,

HEADER CONFIRMED

PACKET CONTAINS NMEA DATA

SENDING PACKET... DONE!

RSSI: -101

<----------  END TRANSMISSION  ---------->



<---------- BEGIN TRANSMISSION ---------->

GOT REPLY: HEYY$GPGGA,173856.000,4025.4362,N,07957.0824,W,2,08,1.20,242.2,M,-3PGGA,173857.000,40

HEADER CONFIRMED

PACKET CONTAINS NMEA DATA

SENDING PACKET... DONE!

RSSI: -102

<----------  END TRANSMISSION  ---------->



<---------- BEGIN TRANSMISSION ---------->

GOT REPLY: HEYY$GPGGA,173906.000,4025.4413,N,07957.0881,W,2,08,1.20,241.6,M,-3$GPGGA,173907.000,

HEADER CONFIRMED

PACKET CONTAINS NMEA DATA

SENDING PACKET... DONE!

RSSI: -96

<----------  END TRANSMISSION  ---------->



<---------- BEGIN TRANSMISSION ---------->

GOT REPLY: HEYY$GPGGA,173916.000,4025.4472,N,07957.0926,W,2,08,1.20,239.6,M,-3$GPGGA,173917.000,

HEADER CONFIRMED

PACKET CONTAINS NMEA DATA

SENDING PACKET... DONE!

RSSI: -106

<----------  END TRANSMISSION  ---------->



<---------- BEGIN TRANSMISSION ---------->

GOT REPLY: HEYY$GPGGA,173926.000,4025.4511,N,07957.0975,W,2,08,1.20,238.5,M,-3$GPGGA,173927.000,

HEADER CONFIRMED

PACKET CONTAINS NMEA DATA

SENDING PACKET... DONE!

RSSI: -100

<----------  END TRANSMISSION  ---------->



<---------- BEGIN TRANSMISSION ---------->

GOT REPLY: HEYY$GPGGA,173936.000,4025.4507,N,07957.0974,W,2,08,1.20,238.5,M,-3$GPGGA,173937.000,

HEADER CONFIRMED

PACKET CONTAINS NMEA DATA

SENDING PACKET... DONE!

RSSI: -98

<----------  END TRANSMISSION  ---------->



<---------- BEGIN TRANSMISSION ---------->

GOT REPLY: HEYY$GPGGA,173940.000,4025.4507,N,07957.0975,W,2,08,1.20,238.5,M,-3$GPGGA,173941.000,

HEADER CONFIRMED

PACKET CONTAINS NMEA DATA

SENDING PACKET... DONE!

RSSI: -90

<----------  END TRANSMISSION  ---------->



<---------- BEGIN TRANSMISSION ---------->

GOT REPLY: HEYY$GPGGA,173944.000,4025.4508,N,07957.0975,W,2,08,1.54,238.5,M,-35.4509,N,07957.097

HEADER CONFIRMED

PACKET CONTAINS NMEA DATA

SENDING PACKET... DONE!

RSSI: -101

<----------  END TRANSMISSION  ---------->



<---------- BEGIN TRANSMISSION ---------->

GOT REPLY: HEYY$GPGGA,173948.000,4025.4528,N,07957.0984,W,2,08,1.20,237.7,M,-3$GPGGA,173949.000,

HEADER CONFIRMED

PACKET CONTAINS NMEA DATA

SENDING PACKET... DONE!

RSSI: -100

<----------  END TRANSMISSION  ---------->



<---------- BEGIN TRANSMISSION ---------->

GOT REPLY: HEYY$GPGGA,173952.000,4025.4554,N,07957.0992,W,2,08,1.20,236.5,M,-307957.0994,W,2,08,

HEADER CONFIRMED

PACKET CONTAINS NMEA DATA

SENDING PACKET... DONE!

RSSI: -88

<----------  END TRANSMISSION  ---------->



<---------- BEGIN TRANSMISSION ---------->

GOT REPLY: HEYY$GPGGA,173956.000,4025.4582,N,07957.1003,W,2,08,1.20,235.7,M,-3W,2,08,1.20,235.5,

HEADER CONFIRMED

PACKET CONTAINS NMEA DATA

SENDING PACKET... DONE!

RSSI: -90

<----------  END TRANSMISSION  ---------->





<---------- BEGIN TRANSMISSION ---------->

GOT REPLY: HEYY$GPGGA,174018.000,4025.4719,N,07957.1081,W,2,08,1.20,231.8,M,-3$GPGGA,174019.000,

HEADER CONFIRMED

PACKET CONTAINS NMEA DATA

SENDING PACKET... DONE!

RSSI: -104

<----------  END TRANSMISSION  ---------->



<---------- BEGIN TRANSMISSION ---------->

GOT REPLY: HEYY$GPGGA,174022.000,4025.4735,N,07957.1091,W,2,08,1.20,231.3,M,-38,1.54,231.3,M,-33

HEADER CONFIRMED

PACKET CONTAINS NMEA DATA

SENDING PACKET... DONE!

RSSI: -98

<----------  END TRANSMISSION  ---------->





<---------- BEGIN TRANSMISSION ---------->

GOT REPLY: HEYY$GPGGA,174051.000,4025.4759,N,07957.1115,W,2,08,1.20,230.7,M,-3*7F



HEADER CONFIRMED

PACKET CONTAINS NMEA DATA

SENDING PACKET... DONE!

RSSI: -98

<----------  END TRANSMISSION  ---------->



<---------- BEGIN TRANSMISSION ---------->

GOT REPLY: HEYY$GPGGA,174055.000,4025.4753,N,07957.1117,W,2,08,1.20,230.7,M,-3160.94,030219,,,D*

HEADER CONFIRMED

PACKET CONTAINS NMEA DATA

SENDING PACKET... DONE!

RSSI: -102

<----------  END TRANSMISSION  ---------->



<---------- BEGIN TRANSMISSION ---------->

GOT REPLY: HEYY$GPGGA,174059.000,4025.4727,N,07957.1101,W,2,08,1.20,229.9,M,-36,32,22,14,31,10,0

HEADER CONFIRMED

PACKET CONTAINS NMEA DATA

SENDING PACKET... DONE!

RSSI: -100

<----------  END TRANSMISSION  ---------->



<---------- BEGIN TRANSMISSION ---------->

GOT REPLY: HEYY$GPGGA,174105.000,4025.4688,N,07957.1075,W,2,09,1.09,229.6,M,-3$GPGGA,174106.000,

HEADER CONFIRMED

PACKET CONTAINS NMEA DATA

SENDING PACKET... DONE!

RSSI: -98

<----------  END TRANSMISSION  ---------->




<---------- BEGIN TRANSMISSION ---------->

GOT REPLY: HEYY$GPGGA,174116.000,4025.4621,N,07957.1036,W,2,09,1.09,229.3,M,-3



HEADER CONFIRMED

PACKET CONTAINS NMEA DATA

SENDING PACKET... DONE!

RSSI: -91

<----------  END TRANSMISSION  ---------->



<---------- BEGIN TRANSMISSION ---------->

GOT REPLY: HEYY$GPGGA,174118.000,4025.4608,N,07957.1028,W,2,09,1.09,229.3,M,-3$GPGGA,174120.000,

HEADER CONFIRMED

PACKET CONTAINS NMEA DATA

SENDING PACKET... DONE!

RSSI: -86

<----------  END TRANSMISSION  ---------->



<---------- BEGIN TRANSMISSION ---------->

GOT REPLY: HEYY$GPGGA,174123.000,4025.4573,N,07957.1005,W,2,09,1.09,229.5,M,-3.4567,N,07957.1000

HEADER CONFIRMED

PACKET CONTAINS NMEA DATA

SENDING PACKET... DONE!

RSSI: -98

<----------  END TRANSMISSION  ---------->



<---------- BEGIN TRANSMISSION ---------->

GOT REPLY: HEYY$GPGGA,174127.000,4025.4547,N,07957.0988,W,2,09,1.09,229.7,M,-3,174128.000,4025.4

HEADER CONFIRMED

PACKET CONTAINS NMEA DATA

SENDING PACKET... DONE!

RSSI: -96

<----------  END TRANSMISSION  ---------->



<---------- BEGIN TRANSMISSION ---------->

GOT REPLY: HEYY$GPGGA,174132.000,4025.4513,N,07957.0977,W,2,09,1.09,230.0,M,-307957.0971,W,2,09,

HEADER CONFIRMED

PACKET CONTAINS NMEA DATA

SENDING PACKET... DONE!

RSSI: -88

<----------  END TRANSMISSION  ---------->



<---------- BEGIN TRANSMISSION ---------->

GOT REPLY: HEYY$GPGGA,174136.000,4025.4488,N,07957.0965,W,2,09,1.09,230.1,M,-3,-33.0,M,0000,0000

HEADER CONFIRMED

PACKET CONTAINS NMEA DATA

SENDING PACKET... DONE!

RSSI: -96

<----------  END TRANSMISSION  ---------->




<---------- BEGIN TRANSMISSION ---------->

GOT REPLY: HEYY$GPGGA,174154.000,4025.4377,N,07957.0909,W,2,09,1.09,231.4,M,-3$GPGGA,174155.000,

HEADER CONFIRMED

PACKET CONTAINS NMEA DATA

SENDING PACKET... DONE!

RSSI: -101

<----------  END TRANSMISSION  ---------->



<---------- BEGIN TRANSMISSION ---------->

GOT REPLY: HEYY$GPGGA,174158.000,4025.4374,N,07957.0902,W,2,09,1.09,231.5,M,-3.4366,N,07957.0893

HEADER CONFIRMED

PACKET CONTAINS NMEA DATA

SENDING PACKET... DONE!

RSSI: -99

<----------  END TRANSMISSION  ---------->



<---------- BEGIN TRANSMISSION ---------->

GOT REPLY: HEYY$GPGGA,174202.000,4025.4347,N,07957.0870,W,2,09,1.09,231.5,M,-3$GPGGA,174203.000,

HEADER CONFIRMED

PACKET CONTAINS NMEA DATA

SENDING PACKET... DONE!

RSSI: -87

<----------  END TRANSMISSION  ---------->



<---------- BEGIN TRANSMISSION ---------->

GOT REPLY: HEYY$GPGGA,174206.000,4025.4319,N,07957.0847,W,2,09,1.09,231.7,M,-39,M,-33.0,M,0000,0

HEADER CONFIRMED

PACKET CONTAINS NMEA DATA

SENDING PACKET... DONE!

RSSI: -89

<----------  END TRANSMISSION  ---------->



<---------- BEGIN TRANSMISSION ---------->

GOT REPLY: HEYY$GPGGA,174210.000,4025.4291,N,07957.0829,W,2,09,1.09,232.2,M,-3A,174211.000,4025.

HEADER CONFIRMED

PACKET CONTAINS NMEA DATA

SENDING PACKET... DONE!

RSSI: -93

<----------  END TRANSMISSION  ---------->



<---------- BEGIN TRANSMISSION ---------->

GOT REPLY: HEYY$GPGGA,174220.000,4025.4216,N,07957.0785,W,2,09,1.09,232.6,M,-3$GPGGA,174221.000,

HEADER CONFIRMED

PACKET CONTAINS NMEA DATA

SENDING PACKET... DONE!

RSSI: -98

<----------  END TRANSMISSION  ---------->



<---------- BEGIN TRANSMISSION ---------->

GOT REPLY: HEYY$GPGGA,174224.000,4025.4187,N,07957.0762,W,2,09,1.09,232.8,M,-3$GPGGA,174225.000,

HEADER CONFIRMED

PACKET CONTAINS NMEA DATA

SENDING PACKET... DONE!

RSSI: -96

<----------  END TRANSMISSION  ---------->



<---------- BEGIN TRANSMISSION ---------->

GOT REPLY: HEYY$GPGGA,174228.000,4025.4162,N,07957.0744,W,2,09,1.09,233.0,M,-30,M,0000,0000*5E



HEADER CONFIRMED

PACKET CONTAINS NMEA DATA

SENDING PACKET... DONE!

RSSI: -87

<----------  END TRANSMISSION  ---------->



<---------- BEGIN TRANSMISSION ---------->

GOT REPLY: HEYY$GPGGA,174232.000,4025.4128,N,07957.0720,W,2,09,1.09,233.6,M,-3$GPGGA,174233.000,

HEADER CONFIRMED

PACKET CONTAINS NMEA DATA

SENDING PACKET... DONE!

RSSI: -87

<----------  END TRANSMISSION  ---------->



<---------- BEGIN TRANSMISSION ---------->

GOT REPLY: HEYY$GPGGA,174236.000,4025.4096,N,07957.0691,W,2,09,1.09,234.3,M,-388,N,07957.0683,W,

HEADER CONFIRMED

PACKET CONTAINS NMEA DATA

SENDING PACKET... DONE!

RSSI: -83

<----------  END TRANSMISSION  ---------->



<---------- BEGIN TRANSMISSION ---------->

GOT REPLY: HEYY$GPGGA,174240.000,4025.4061,N,07957.0662,W,2,09,1.09,235.1,M,-3*57



HEADER CONFIRMED

PACKET CONTAINS NMEA DATA

SENDING PACKET... DONE!

RSSI: -84

<----------  END TRANSMISSION  ---------->



<---------- BEGIN TRANSMISSION ---------->

GOT REPLY: HEYY$GPGGA,174244.000,4025.4030,N,07957.0637,W,2,09,1.09,235.7,M,-3$GPGGA,174245.000,

HEADER CONFIRMED

PACKET CONTAINS NMEA DATA

SENDING PACKET... DONE!

RSSI: -87

<----------  END TRANSMISSION  ---------->



<---------- BEGIN TRANSMISSION ---------->

GOT REPLY: HEYY$GPGGA,174248.000,4025.4005,N,07957.0610,W,2,09,1.09,236.5,M,-3174249.000,4025.39

HEADER CONFIRMED

PACKET CONTAINS NMEA DATA

SENDING PACKET... DONE!

RSSI: -88

<----------  END TRANSMISSION  ---------->



<---------- BEGIN TRANSMISSION ---------->

GOT REPLY: HEYY$GPGGA,174252.000,4025.3978,N,07957.0588,W,2,09,1.09,236.9,M,-333.0,M,0000,0000*5

HEADER CONFIRMED

PACKET CONTAINS NMEA DATA

SENDING PACKET... DONE!

RSSI: -88

<----------  END TRANSMISSION  ---------->



<---------- BEGIN TRANSMISSION ---------->

GOT REPLY: HEYY$GPGGA,174302.000,4025.3902,N,07957.0555,W,2,09,1.09,238.9,M,-3$GPGGA,174303.000,

HEADER CONFIRMED

PACKET CONTAINS NMEA DATA

SENDING PACKET... DONE!

RSSI: -80

<----------  END TRANSMISSION  ---------->



<---------- BEGIN TRANSMISSION ---------->

GOT REPLY: HEYY$GPGGA,174306.000,4025.3870,N,07957.0539,W,2,09,1.09,239.4,M,-3$GPGGA,174307.000,

HEADER CONFIRMED

PACKET CONTAINS NMEA DATA

SENDING PACKET... DONE!

RSSI: -86

<----------  END TRANSMISSION  ---------->



<---------- BEGIN TRANSMISSION ---------->

GOT REPLY: HEYY$GPGGA,174310.000,4025.3842,N,07957.0527,W,2,09,1.09,240.2,M,-3,174311.000,4025.3

HEADER CONFIRMED

PACKET CONTAINS NMEA DATA

SENDING PACKET... DONE!

RSSI: -88

<----------  END TRANSMISSION  ---------->



<---------- BEGIN TRANSMISSION ---------->

GOT REPLY: HEYY$GPGGA,174314.000,4025.3817,N,07957.0521,W,2,09,1.09,239.5,M,-3M,-33.0,M,0000,000

HEADER CONFIRMED

PACKET CONTAINS NMEA DATA

SENDING PACKET... DONE!

RSSI: -82

<----------  END TRANSMISSION  ---------->



<---------- BEGIN TRANSMISSION ---------->

GOT REPLY: HEYY$GPGGA,174318.000,4025.3788,N,07957.0519,W,2,09,1.09,239.6,M,-3$GPGGA,174319.000,

HEADER CONFIRMED

PACKET CONTAINS NMEA DATA

SENDING PACKET... DONE!

RSSI: -78

<----------  END TRANSMISSION  ---------->



<---------- BEGIN TRANSMISSION ---------->

GOT REPLY: HEYY$GPGGA,174322.000,4025.3764,N,07957.0508,W,2,09,1.09,239.2,M,-32,M,-33.0,M,0000,0

HEADER CONFIRMED

PACKET CONTAINS NMEA DATA

SENDING PACKET... DONE!

RSSI: -76

<----------  END TRANSMISSION  ---------->



<---------- BEGIN TRANSMISSION ---------->

GOT REPLY: HEYY$GPGGA,174326.000,4025.3735,N,07957.0489,W,2,09,1.09,238.9,M,-3$GPGGA,174327.000,

HEADER CONFIRMED

PACKET CONTAINS NMEA DATA

SENDING PACKET... DONE!

RSSI: -81

<----------  END TRANSMISSION  ---------->



<---------- BEGIN TRANSMISSION ---------->

GOT REPLY: HEYY$GPGGA,174330.000,4025.3708,N,07957.0474,W,2,09,1.09,238.9,M,-3.3705,N,07957.0471

HEADER CONFIRMED

PACKET CONTAINS NMEA DATA

SENDING PACKET... DONE!

RSSI: -87

<----------  END TRANSMISSION  ---------->



<---------- BEGIN TRANSMISSION ---------->

GOT REPLY: HEYY$GPGGA,174334.000,4025.3696,N,07957.0454,W,2,09,1.09,238.9,M,-30,M,0000,0000*56



HEADER CONFIRMED

PACKET CONTAINS NMEA DATA

SENDING PACKET... DONE!

RSSI: -80

<----------  END TRANSMISSION  ---------->



<---------- BEGIN TRANSMISSION ---------->

GOT REPLY: HEYY$GPGGA,174338.000,4025.3674,N,07957.0436,W,2,09,1.09,239.2,M,-3$GPGGA,174339.000,

HEADER CONFIRMED

PACKET CONTAINS NMEA DATA

SENDING PACKET... DONE!

RSSI: -77

<----------  END TRANSMISSION  ---------->



<---------- BEGIN TRANSMISSION ---------->

GOT REPLY: HEYY$GPGGA,174342.000,4025.3644,N,07957.0411,W,2,09,1.09,239.5,M,-3638,N,07957.0401,W

HEADER CONFIRMED

PACKET CONTAINS NMEA DATA

SENDING PACKET... DONE!

RSSI: -84

<----------  END TRANSMISSION  ---------->



<---------- BEGIN TRANSMISSION ---------->

GOT REPLY: HEYY$GPGGA,174346.000,4025.3615,N,07957.0382,W,2,09,1.09,239.9,M,-3,-33.0,M,0000,0000

HEADER CONFIRMED

PACKET CONTAINS NMEA DATA

SENDING PACKET... DONE!

RSSI: -79

<----------  END TRANSMISSION  ---------->



<---------- BEGIN TRANSMISSION ---------->

GOT REPLY: HEYY$GPGGA,174350.000,4025.3591,N,07957.0354,W,2,09,1.09,239.8,M,-3$GPGGA,174351.000,

HEADER CONFIRMED

PACKET CONTAINS NMEA DATA

SENDING PACKET... DONE!

RSSI: -88

<----------  END TRANSMISSION  ---------->



<---------- BEGIN TRANSMISSION ---------->

GOT REPLY: HEYY$GPGGA,174354.000,4025.3560,N,07957.0327,W,2,09,1.09,239.9,M,-32,09,1.09,239.9,M,

HEADER CONFIRMED

PACKET CONTAINS NMEA DATA

SENDING PACKET... DONE!

RSSI: -79

<----------  END TRANSMISSION  ---------->



<---------- BEGIN TRANSMISSION ---------->

GOT REPLY: HEYY$GPGGA,174404.000,4025.3498,N,07957.0262,W,2,09,1.09,239.2,M,-3$GPGGA,174405.000,

HEADER CONFIRMED

PACKET CONTAINS NMEA DATA

SENDING PACKET... DONE!

RSSI: -78

<----------  END TRANSMISSION  ---------->



<---------- BEGIN TRANSMISSION ---------->

GOT REPLY: HEYY$GPGGA,174408.000,4025.3466,N,07957.0243,W,2,09,1.09,239.2,M,-3$GPGGA,174409.000,

HEADER CONFIRMED

PACKET CONTAINS NMEA DATA

SENDING PACKET... DONE!

RSSI: -76

<----------  END TRANSMISSION  ---------->



<---------- BEGIN TRANSMISSION ---------->

GOT REPLY: HEYY$GPGGA,174412.000,4025.3438,N,07957.0221,W,2,09,1.09,239.1,M,-3,W,2,09,1.09,239.0

HEADER CONFIRMED

PACKET CONTAINS NMEA DATA

SENDING PACKET... DONE!

RSSI: -73

<----------  END TRANSMISSION  ---------->



<---------- BEGIN TRANSMISSION ---------->

GOT REPLY: HEYY$GPGGA,174416.000,4025.3406,N,07957.0203,W,2,09,1.09,238.9,M,-38,M,-33.0,M,0000,0

HEADER CONFIRMED

PACKET CONTAINS NMEA DATA

SENDING PACKET... DONE!

RSSI: -88

<----------  END TRANSMISSION  ---------->



<---------- BEGIN TRANSMISSION ---------->

GOT REPLY: HEYY$GPGGA,174420.000,4025.3378,N,07957.0182,W,2,09,1.09,239.0,M,-3$GPGGA,174421.000,

HEADER CONFIRMED

PACKET CONTAINS NMEA DATA

SENDING PACKET... DONE!

RSSI: -80

<----------  END TRANSMISSION  ---------->



<---------- BEGIN TRANSMISSION ---------->

GOT REPLY: HEYY$GPGGA,174424.000,4025.3350,N,07957.0161,W,2,09,1.09,239.4,M,-3PGGA,174425.000,40

HEADER CONFIRMED

PACKET CONTAINS NMEA DATA

SENDING PACKET... DONE!

RSSI: -71

<----------  END TRANSMISSION  ---------->



<---------- BEGIN TRANSMISSION ---------->

GOT REPLY: HEYY$GPGGA,174428.000,4025.3322,N,07957.0141,W,2,09,1.09,239.7,M,-34,31,10,03,16,01,,

HEADER CONFIRMED

PACKET CONTAINS NMEA DATA

SENDING PACKET... DONE!

RSSI: -79

<----------  END TRANSMISSION  ---------->



<---------- BEGIN TRANSMISSION ---------->

GOT REPLY: HEYY$GPGGA,174434.000,4025.3283,N,07957.0114,W,2,09,1.09,239.8,M,-3$GPGGA,174435.000,

HEADER CONFIRMED

PACKET CONTAINS NMEA DATA

SENDING PACKET... DONE!

RSSI: -71

<----------  END TRANSMISSION  ---------->



<---------- BEGIN TRANSMISSION ---------->

GOT REPLY: HEYY$GPGGA,174438.000,4025.3254,N,07957.0088,W,2,09,1.09,241.0,M,-300,4025.3247,N,079

HEADER CONFIRMED

PACKET CONTAINS NMEA DATA

SENDING PACKET... DONE!

RSSI: -71

<----------  END TRANSMISSION  ---------->



<---------- BEGIN TRANSMISSION ---------->

GOT REPLY: HEYY$GPGGA,174442.000,4025.3229,N,07957.0070,W,2,09,1.09,241.3,M,-3$GPGGA,174443.000,

HEADER CONFIRMED

PACKET CONTAINS NMEA DATA

SENDING PACKET... DONE!

RSSI: -62

<----------  END TRANSMISSION  ---------->



<---------- BEGIN TRANSMISSION ---------->

GOT REPLY: HEYY$GPGGA,174446.000,4025.3202,N,07957.0043,W,2,09,1.09,241.2,M,-3,07957.0038,W,2,09

HEADER CONFIRMED

PACKET CONTAINS NMEA DATA

SENDING PACKET... DONE!

RSSI: -57

<----------  END TRANSMISSION  ---------->



<---------- BEGIN TRANSMISSION ---------->

GOT REPLY: HEYY$GPGGA,174450.000,4025.3170,N,07957.0020,W,2,09,1.09,241.3,M,-3$GPGGA,174451.000,

HEADER CONFIRMED

PACKET CONTAINS NMEA DATA

SENDING PACKET... DONE!

RSSI: -56

<----------  END TRANSMISSION  ---------->



<---------- BEGIN TRANSMISSION ---------->

GOT REPLY: HEYY$GPGGA,174454.000,4025.3143,N,07956.9998,W,2,09,1.09,240.3,M,-3025.3137,N,07956.9

HEADER CONFIRMED

PACKET CONTAINS NMEA DATA

SENDING PACKET... DONE!

RSSI: -59

<----------  END TRANSMISSION  ---------->



<---------- BEGIN TRANSMISSION ---------->

GOT REPLY: HEYY$GPGGA,174458.000,4025.3116,N,07956.9982,W,2,09,1.09,239.8,M,-35B



HEADER CONFIRMED

PACKET CONTAINS NMEA DATA

SENDING PACKET... DONE!

RSSI: -56

<----------  END TRANSMISSION  ---------->



<---------- BEGIN TRANSMISSION ---------->

GOT REPLY: HEYY$GPGGA,174502.000,4025.3088,N,07956.9980,W,2,09,1.09,239.1,M,-3000,4025.3082,N,07

HEADER CONFIRMED

PACKET CONTAINS NMEA DATA

SENDING PACKET... DONE!

RSSI: -49

<----------  END TRANSMISSION  ---------->



<---------- BEGIN TRANSMISSION ---------->

GOT REPLY: HEYY$GPGGA,174506.000,4025.3063,N,07956.9963,W,2,09,1.09,238.2,M,-3$GPGGA,174507.000,

HEADER CONFIRMED

PACKET CONTAINS NMEA DATA

SENDING PACKET... DONE!

RSSI: -42

<----------  END TRANSMISSION  ---------->



<---------- BEGIN TRANSMISSION ---------->

GOT REPLY: HEYY$GPGGA,174510.000,4025.3036,N,07956.9944,W,2,09,1.09,237.4,M,-3,0000,0000*5E



HEADER CONFIRMED

PACKET CONTAINS NMEA DATA

SENDING PACKET... DONE!

RSSI: -32

<----------  END TRANSMISSION  ---------->



<---------- BEGIN TRANSMISSION ---------->

GOT REPLY: HEYY$GPGGA,174514.000,4025.3011,N,07956.9930,W,2,09,1.09,236.7,M,-3$GPGGA,174515.000,

HEADER CONFIRMED

PACKET CONTAINS NMEA DATA

SENDING PACKET... DONE!

RSSI: -31

<----------  END TRANSMISSION  ---------->



<---------- BEGIN TRANSMISSION ---------->

GOT REPLY: HEYY$GPGGA,174518.000,4025.2986,N,07956.9912,W,2,09,1.09,236.2,M,-3$GPGGA,174519.000,

HEADER CONFIRMED

PACKET CONTAINS NMEA DATA

SENDING PACKET... DONE!

RSSI: -22

<----------  END TRANSMISSION  ---------->


