Test number(s): 1-15
Test description: flattest range test
Latitude: 39.9925
Longitude: -75.1415

Arduino LoRa RX Test!
LoRa radio init OK!
Set Freq to: 433.00
Received: 
24 47 50 47 47 41 2C 32 30 32 37 32 35 2E 30 30
30 2C 34 30 32 36 2E 33 38 39 30 2C 4E 2C 30 37
39 35 36 2E 37 37 39 32 2C 57 2C 32 2C 31 30 2C
30 2E 39 31 2C 32 37 39 2E 31 2C 4D 2C 2D 33 2A
33 44 D A 0 2C 32 30 32 37 32 32 2E 30 30 30
2C 0 
Got: $GPGGA,202725.000,4026.3890,N,07956.7792,W,0,10,0.91,279.1,M,-3*3D

RSSI: -71
Sent a reply
Received: 
24 47 50 47 47 41 2C 32 30 32 37 32 36 2E 30 30
30 2C 34 30 32 36 2E 33 38 39 30 2C 4E 2C 30 37
39 35 36 2E 37 37 39 32 2C 57 2C 32 2C 31 30 2C
30 2E 39 31 2C 32 37 39 2E 31 2C 4D 2C 2D 33 24
47 50 47 47 41 2C 32 30 32 37 32 37 2E 30 30 30
2C 0 
Got: $GPGGA,202726.000,4026.3890,N,07956.7792,W,0,10,0.91,279.1,M,-3$GPGGA,202727.000,
RSSI: -76
Sent a reply
Received: 
24 47 50 47 47 41 2C 32 30 32 37 32 39 2E 30 30
30 2C 34 30 32 36 2E 33 38 39 30 2C 4E 2C 30 37
39 35 36 2E 37 37 39 32 2C 57 2C 32 2C 31 30 2C
30 2E 39 31 2C 32 37 39 2E 31 2C 4D 2C 2D 33 24
47 50 47 47 41 2C 32 30 32 37 33 30 2E 30 30 30
2C 0 
Got: $GPGGA,202729.000,4026.3890,N,07956.7792,W,0,10,0.91,279.1,M,-3$GPGGA,202730.000,
RSSI: -70
Sent a reply
Received: 
24 47 50 47 47 41 2C 32 30 32 37 33 32 2E 30 30
30 2C 34 30 32 36 2E 33 38 39 30 2C 4E 2C 30 37
39 35 36 2E 37 37 39 32 2C 57 2C 32 2C 31 30 2C
30 2E 39 31 2C 32 37 39 2E 31 2C 4D 2C 2D 33 24
47 50 47 47 41 2C 32 30 32 37 33 33 2E 30 30 30
2C 0 
Got: $GPGGA,202732.000,4026.3890,N,07956.7792,W,0,10,0.91,279.1,M,-3$GPGGA,202733.000,
RSSI: -68
Sent a reply
Received: 
24 47 50 47 47 41 2C 32 30 32 37 33 35 2E 30 30
30 2C 34 30 32 36 2E 33 38 39 30 2C 4E 2C 30 37
39 35 36 2E 37 37 39 32 2C 57 2C 32 2C 31 30 2C
30 2E 39 31 2C 32 37 39 2E 31 2C 4D 2C 2D 33 24
47 50 47 47 41 2C 32 30 32 37 33 36 2E 30 30 30
2C 0 
Got: $GPGGA,202735.000,4026.3890,N,07956.7792,W,2,10,0.91,279.1,M,-3$GPGGA,202736.000,
RSSI: -71
Sent a reply
Received: 
24 47 50 47 47 41 2C 32 30 32 37 33 38 2E 30 30
30 2C 34 30 32 36 2E 33 38 39 30 2C 4E 2C 30 37
39 35 36 2E 37 37 39 32 2C 57 2C 32 2C 30 39 2C
30 2E 39 36 2C 32 37 39 2E 31 2C 4D 2C 2D 33 24
47 50 47 47 41 2C 32 30 32 37 33 39 2E 30 30 30
2C 0 
Got: $GPGGA,202738.000,4026.3890,N,07956.7792,W,2,09,0.96,279.1,M,-3$GPGGA,202739.000,
RSSI: -70
Sent a reply
Received: 
24 47 50 47 47 41 2C 32 30 32 37 34 31 2E 30 30
30 2C 34 30 32 36 2E 33 38 38 38 2C 4E 2C 30 37
39 35 36 2E 37 37 39 37 2C 57 2C 32 2C 31 30 2C
30 2E 39 31 2C 32 37 38 2E 34 2C 4D 2C 2D 33 24
47 50 47 47 41 2C 32 30 32 37 34 32 2E 30 30 30
2C 0 
Got: $GPGGA,202741.000,4026.3888,N,07956.7797,W,2,10,0.91,278.4,M,-3$GPGGA,202742.000,
RSSI: -68
Sent a reply
Received: 
24 47 50 47 47 41 2C 32 30 32 37 34 34 2E 30 30
30 2C 34 30 32 36 2E 33 38 38 37 2C 4E 2C 30 37
39 35 36 2E 37 38 30 33 2C 57 2C 32 2C 31 30 2C
30 2E 39 31 2C 32 37 37 2E 33 2C 4D 2C 2D 33 24
47 50 47 47 41 2C 32 30 32 37 34 35 2E 30 30 30
2C 0 
Got: $GPGGA,202744.000,4026.3887,N,07956.7803,W,2,10,0.91,277.3,M,-3$GPGGA,202745.000,
RSSI: -63
Sent a reply
Received: 
24 47 50 47 47 41 2C 32 30 32 37 34 37 2E 30 30
30 2C 34 30 32 36 2E 33 38 38 33 2C 4E 2C 30 37
39 35 36 2E 37 38 30 36 2C 57 2C 32 2C 31 30 2C
30 2E 39 31 2C 32 37 36 2E 36 2C 4D 2C 2D 33 24
47 50 47 47 41 2C 32 30 32 37 34 38 2E 30 30 30
2C 0 
Got: $GPGGA,202747.000,4026.3883,N,07956.7806,W,2,10,0.91,276.6,M,-3$GPGGA,202748.000,
RSSI: -70
Sent a reply
Received: 
24 47 50 47 47 41 2C 32 30 32 37 35 30 2E 30 30
30 2C 34 30 32 36 2E 33 38 37 39 2C 4E 2C 30 37
39 35 36 2E 37 38 30 36 2C 57 2C 32 2C 31 30 2C
30 2E 39 31 2C 32 37 36 2E 39 2C 4D 2C 2D 33 24
47 50 47 47 41 2C 32 30 32 37 35 31 2E 30 30 30
2C 0 
Got: $GPGGA,202750.000,4026.3879,N,07956.7806,W,2,10,0.91,276.9,M,-3$GPGGA,202751.000,
RSSI: -73
Sent a reply
Received: 
24 47 50 47 47 41 2C 32 30 32 37 35 33 2E 30 30
30 2C 34 30 32 36 2E 33 38 37 37 2C 4E 2C 30 37
39 35 36 2E 37 38 30 37 2C 57 2C 32 2C 31 30 2C
30 2E 39 31 2C 32 37 37 2E 31 2C 4D 2C 2D 33 24
47 50 47 47 41 2C 32 30 32 37 35 34 2E 30 30 30
2C 0 
Got: $GPGGA,202753.000,4026.3877,N,07956.7807,W,2,10,0.91,277.1,M,-3$GPGGA,202754.000,
RSSI: -73
Sent a reply
Received: 
24 47 50 47 47 41 2C 32 30 32 37 35 36 2E 30 30
30 2C 34 30 32 36 2E 33 38 37 35 2C 4E 2C 30 37
39 35 36 2E 37 38 30 37 2C 57 2C 32 2C 31 30 2C
30 2E 39 31 2C 32 37 37 2E 34 2C 4D 2C 2D 33 24
47 50 47 47 41 2C 32 30 32 37 35 37 2E 30 30 30
2C 0 
Got: $GPGGA,202756.000,4026.3875,N,07956.7807,W,2,10,0.91,277.4,M,-3$GPGGA,202757.000,
RSSI: -74
Sent a reply
Received: 
24 47 50 47 47 41 2C 32 30 32 37 35 39 2E 30 30
30 2C 34 30 32 36 2E 33 38 37 35 2C 4E 2C 30 37
39 35 36 2E 37 38 30 37 2C 57 2C 32 2C 31 30 2C
30 2E 39 31 2C 32 37 37 2E 34 2C 4D 2C 2D 33 24
47 50 47 47 41 2C 32 30 32 38 30 30 2E 30 30 30
2C 0 
Got: $GPGGA,202759.000,4026.3875,N,07956.7807,W,2,10,0.91,277.4,M,-3$GPGGA,202800.000,
RSSI: -89
Sent a reply
Received: 
24 47 50 47 47 41 2C 32 30 32 38 30 32 2E 30 30
30 2C 34 30 32 36 2E 33 38 37 36 2C 4E 2C 30 37
39 35 36 2E 37 38 30 37 2C 57 2C 32 2C 31 30 2C
30 2E 39 31 2C 32 37 37 2E 34 2C 4D 2C 2D 33 24
47 50 47 47 41 2C 32 30 32 38 30 33 2E 30 30 30
2C 0 
Got: $GPGGA,202802.000,4026.3876,N,07956.7807,W,2,10,0.91,277.4,M,-3$GPGGA,202803.000,
RSSI: -90
Sent a reply
Received: 
24 47 50 47 47 41 2C 32 30 32 38 30 35 2E 30 30
30 2C 34 30 32 36 2E 33 38 38 31 2C 4E 2C 30 37
39 35 36 2E 37 38 30 38 2C 57 2C 32 2C 31 30 2C
30 2E 39 31 2C 32 37 37 2E 36 2C 4D 2C 2D 33 24
47 50 47 47 41 2C 32 30 32 38 30 36 2E 30 30 30
2C 0 
Got: $GPGGA,202805.000,4026.3881,N,07956.7808,W,2,10,0.91,277.6,M,-3$GPGGA,202806.000,
RSSI: -80
Sent a reply
Received: 
24 47 50 47 47 41 2C 32 30 32 38 30 38 2E 30 30
30 2C 34 30 32 36 2E 33 38 39 39 2C 4E 2C 30 37
39 35 36 2E 37 38 30 39 2C 57 2C 32 2C 31 30 2C
30 2E 39 31 2C 32 37 37 2E 38 2C 4D 2C 2D 33 24
47 50 47 47 41 2C 32 30 32 38 30 39 2E 30 30 30
2C 0 
Got: $GPGGA,202808.000,4026.3899,N,07956.7809,W,2,10,0.91,277.8,M,-3$GPGGA,202809.000,
RSSI: -81
Sent a reply
Received: 
24 47 50 47 47 41 2C 32 30 32 38 31 31 2E 30 30
30 2C 34 30 32 36 2E 33 39 31 32 2C 4E 2C 30 37
39 35 36 2E 37 38 30 35 2C 57 2C 32 2C 31 30 2C
30 2E 38 39 2C 32 37 38 2E 31 2C 4D 2C 2D 33 24
47 50 47 47 41 2C 32 30 32 38 31 32 2E 30 30 30
2C 0 
Got: $GPGGA,202811.000,4026.3912,N,07956.7805,W,2,10,0.89,278.1,M,-3$GPGGA,202812.000,
RSSI: -83
Sent a reply
Received: 
24 47 50 47 47 41 2C 32 30 32 38 31 34 2E 30 30
30 2C 34 30 32 36 2E 33 39 32 36 2C 4E 2C 30 37
39 35 36 2E 37 38 30 33 2C 57 2C 32 2C 31 30 2C
30 2E 39 31 2C 32 37 38 2E 33 2C 4D 2C 2D 33 24
47 50 47 47 41 2C 32 30 32 38 31 35 2E 30 30 30
2C 0 
Got: $GPGGA,202814.000,4026.3926,N,07956.7803,W,2,10,0.91,278.3,M,-3$GPGGA,202815.000,
RSSI: -83
Sent a reply
Received: 
24 47 50 47 47 41 2C 32 30 32 38 31 37 2E 30 30
30 2C 34 30 32 36 2E 33 39 33 38 2C 4E 2C 30 37
39 35 36 2E 37 38 30 30 2C 57 2C 32 2C 31 30 2C
30 2E 38 39 2C 32 37 38 2E 35 2C 4D 2C 2D 33 24
47 50 47 47 41 2C 32 30 32 38 31 38 2E 30 30 30
2C 0 
Got: $GPGGA,202817.000,4026.3938,N,07956.7800,W,2,10,0.89,278.5,M,-3$GPGGA,202818.000,
RSSI: -90
Sent a reply
Received: 
24 47 50 47 47 41 2C 32 30 32 38 32 30 2E 30 30
30 2C 34 30 32 36 2E 33 39 34 39 2C 4E 2C 30 37
39 35 36 2E 37 37 39 38 2C 57 2C 32 2C 31 30 2C
30 2E 39 31 2C 32 37 38 2E 38 2C 4D 2C 2D 33 24
47 50 47 47 41 2C 32 30 32 38 32 31 2E 30 30 30
2C 0 
Got: $GPGGA,202820.000,4026.3949,N,07956.7798,W,2,10,0.91,278.8,M,-3$GPGGA,202821.000,
RSSI: -87
Sent a reply
Received: 
24 47 50 47 47 41 2C 32 30 32 38 32 33 2E 30 30
30 2C 34 30 32 36 2E 33 39 36 30 2C 4E 2C 30 37
39 35 36 2E 37 37 39 36 2C 57 2C 32 2C 31 30 2C
30 2E 39 31 2C 32 37 39 2E 30 2C 4D 2C 2D 33 24
47 50 47 47 41 2C 32 30 32 38 32 34 2E 30 30 30
2C 0 
Got: $GPGGA,202823.000,4026.3960,N,07956.7796,W,2,10,0.91,279.0,M,-3$GPGGA,202824.000,
RSSI: -89
Sent a reply
Received: 
24 47 50 47 47 41 2C 32 30 32 38 32 36 2E 30 30
30 2C 34 30 32 36 2E 33 39 37 32 2C 4E 2C 30 37
39 35 36 2E 37 37 39 35 2C 57 2C 32 2C 31 30 2C
30 2E 38 39 2C 32 37 39 2E 32 2C 4D 2C 2D 33 24
47 50 47 47 41 2C 32 30 32 38 32 37 2E 30 30 30
2C 0 
Got: $GPGGA,202826.000,4026.3972,N,07956.7795,W,2,10,0.89,279.2,M,-3$GPGGA,202827.000,
RSSI: -92
Sent a reply
Received: 
24 47 50 47 47 41 2C 32 30 32 38 32 39 2E 30 30
30 2C 34 30 32 36 2E 33 39 38 33 2C 4E 2C 30 37
39 35 36 2E 37 37 39 34 2C 57 2C 32 2C 31 30 2C
30 2E 39 30 2C 32 37 39 2E 36 2C 4D 2C 2D 33 24
47 50 47 47 41 2C 32 30 32 38 33 30 2E 30 30 30
2C 0 
Got: $GPGGA,202829.000,4026.3983,N,07956.7794,W,2,10,0.90,279.6,M,-3$GPGGA,202830.000,
RSSI: -90
Sent a reply
Received: 
24 47 50 47 47 41 2C 32 30 32 38 33 32 2E 30 30
30 2C 34 30 32 36 2E 33 39 39 35 2C 4E 2C 30 37
39 35 36 2E 37 37 39 31 2C 57 2C 32 2C 31 30 2C
30 2E 38 39 2C 32 38 30 2E 30 2C 4D 2C 2D 33 24
47 50 47 47 41 2C 32 30 32 38 33 33 2E 30 30 30
2C 0 
Got: $GPGGA,202832.000,4026.3995,N,07956.7791,W,2,10,0.89,280.0,M,-3$GPGGA,202833.000,
RSSI: -90
Sent a reply
Received: 
24 47 50 47 47 41 2C 32 30 32 38 33 35 2E 30 30
30 2C 34 30 32 36 2E 34 30 30 36 2C 4E 2C 30 37
39 35 36 2E 37 37 38 38 2C 57 2C 32 2C 31 30 2C
30 2E 39 30 2C 32 38 30 2E 34 2C 4D 2C 2D 33 24
47 50 47 47 41 2C 32 30 32 38 33 36 2E 30 30 30
2C 0 
Got: $GPGGA,202835.000,4026.4006,N,07956.7788,W,2,10,0.90,280.4,M,-3$GPGGA,202836.000,
RSSI: -91
Sent a reply
Received: 
24 47 50 47 47 41 2C 32 30 32 38 33 38 2E 30 30
30 2C 34 30 32 36 2E 34 30 31 37 2C 4E 2C 30 37
39 35 36 2E 37 37 38 37 2C 57 2C 32 2C 31 30 2C
30 2E 39 30 2C 32 38 30 2E 35 2C 4D 2C 2D 33 24
47 50 47 47 41 2C 32 30 32 38 33 39 2E 30 30 30
2C 0 
Got: $GPGGA,202838.000,4026.4017,N,07956.7787,W,2,10,0.90,280.5,M,-3$GPGGA,202839.000,
RSSI: -88
Sent a reply
Received: 
24 47 50 47 47 41 2C 32 30 32 38 34 31 2E 30 30
30 2C 34 30 32 36 2E 34 30 32 37 2C 4E 2C 30 37
39 35 36 2E 37 37 38 34 2C 57 2C 32 2C 31 30 2C
30 2E 39 30 2C 32 38 30 2E 36 2C 4D 2C 2D 33 24
47 50 47 47 41 2C 32 30 32 38 34 32 2E 30 30 30
2C 0 
Got: $GPGGA,202841.000,4026.4027,N,07956.7784,W,2,10,0.90,280.6,M,-3$GPGGA,202842.000,
RSSI: -91
Sent a reply
Received: 
24 47 50 47 47 41 2C 32 30 32 38 34 34 2E 30 30
30 2C 34 30 32 36 2E 34 30 33 39 2C 4E 2C 30 37
39 35 36 2E 37 37 38 31 2C 57 2C 32 2C 31 30 2C
30 2E 39 30 2C 32 38 30 2E 36 2C 4D 2C 2D 33 24
47 50 47 47 41 2C 32 30 32 38 34 35 2E 30 30 30
2C 0 
Got: $GPGGA,202844.000,4026.4039,N,07956.7781,W,2,10,0.90,280.6,M,-3$GPGGA,202845.000,
RSSI: -92
Sent a reply
Received: 
24 47 50 47 47 41 2C 32 30 32 38 34 37 2E 30 30
30 2C 34 30 32 36 2E 34 30 34 39 2C 4E 2C 30 37
39 35 36 2E 37 37 37 38 2C 57 2C 32 2C 31 30 2C
30 2E 38 39 2C 32 38 30 2E 36 2C 4D 2C 2D 33 24
47 50 47 47 41 2C 32 30 32 38 34 38 2E 30 30 30
2C 0 
Got: $GPGGA,202847.000,4026.4049,N,07956.7778,W,2,10,0.89,280.6,M,-3$GPGGA,202848.000,
RSSI: -93
Sent a reply
Received: 
24 47 50 47 47 41 2C 32 30 32 38 35 30 2E 30 30
30 2C 34 30 32 36 2E 34 30 35 38 2C 4E 2C 30 37
39 35 36 2E 37 37 37 34 2C 57 2C 32 2C 31 30 2C
30 2E 39 30 2C 32 38 30 2E 37 2C 4D 2C 2D 33 24
47 50 47 47 41 2C 32 30 32 38 35 31 2E 30 30 30
2C 0 
Got: $GPGGA,202850.000,4026.4058,N,07956.7774,W,2,10,0.90,280.7,M,-3$GPGGA,202851.000,
RSSI: -95
Sent a reply
Received: 
24 47 50 47 47 41 2C 32 30 32 38 35 33 2E 30 30
30 2C 34 30 32 36 2E 34 30 36 37 2C 4E 2C 30 37
39 35 36 2E 37 37 37 30 2C 57 2C 32 2C 31 30 2C
30 2E 38 39 2C 32 38 30 2E 38 2C 4D 2C 2D 33 24
47 50 47 47 41 2C 32 30 32 38 35 34 2E 30 30 30
2C 0 
Got: $GPGGA,202853.000,4026.4067,N,07956.7770,W,2,10,0.89,280.8,M,-3$GPGGA,202854.000,
RSSI: -96
Sent a reply
Received: 
24 47 50 47 47 41 2C 32 30 32 38 35 36 2E 30 30
30 2C 34 30 32 36 2E 34 30 37 38 2C 4E 2C 30 37
39 35 36 2E 37 37 36 36 2C 57 2C 32 2C 30 39 2C
30 2E 39 34 2C 32 38 30 2E 39 2C 4D 2C 2D 33 24
47 50 47 47 41 2C 32 30 32 38 35 37 2E 30 30 30
2C 0 
Got: $GPGGA,202856.000,4026.4078,N,07956.7766,W,2,09,0.94,280.9,M,-3$GPGGA,202857.000,
RSSI: -96
Sent a reply
Received: 
24 47 50 47 47 41 2C 32 30 32 38 35 39 2E 30 30
30 2C 34 30 32 36 2E 34 30 38 37 2C 4E 2C 30 37
39 35 36 2E 37 37 36 35 2C 57 2C 32 2C 31 30 2C
30 2E 39 30 2C 32 38 31 2E 31 2C 4D 2C 2D 33 24
47 50 47 47 41 2C 32 30 32 39 30 30 2E 30 30 30
2C 0 
Got: $GPGGA,202859.000,4026.4087,N,07956.7765,W,2,10,0.90,281.1,M,-3$GPGGA,202900.000,
RSSI: -98
Sent a reply
Received: 
24 47 50 47 47 41 2C 32 30 32 39 30 32 2E 30 30
30 2C 34 30 32 36 2E 34 30 39 37 2C 4E 2C 30 37
39 35 36 2E 37 37 36 32 2C 57 2C 32 2C 30 39 2C
30 2E 39 34 2C 32 38 31 2E 32 2C 4D 2C 2D 33 24
47 50 47 47 41 2C 32 30 32 39 30 33 2E 30 30 30
2C 0 
Got: $GPGGA,202902.000,4026.4097,N,07956.7762,W,2,09,0.94,281.2,M,-3$GPGGA,202903.000,
RSSI: -95
Sent a reply
Received: 
24 47 50 47 47 41 2C 32 30 32 39 30 35 2E 30 30
30 2C 34 30 32 36 2E 34 31 30 37 2C 4E 2C 30 37
39 35 36 2E 37 37 35 39 2C 57 2C 32 2C 30 39 2C
30 2E 39 36 2C 32 38 31 2E 34 2C 4D 2C 2D 33 24
47 50 47 47 41 2C 32 30 32 39 30 36 2E 30 30 30
2C 0 
Got: $GPGGA,202905.000,4026.4107,N,07956.7759,W,2,09,0.96,281.4,M,-3$GPGGA,202906.000,
RSSI: -93
Sent a reply
Received: 
24 47 50 47 47 41 2C 32 30 32 39 30 38 2E 30 30
30 2C 34 30 32 36 2E 34 31 31 35 2C 4E 2C 30 37
39 35 36 2E 37 37 35 37 2C 57 2C 32 2C 31 30 2C
30 2E 39 30 2C 32 38 31 2E 35 2C 4D 2C 2D 33 24
47 50 47 47 41 2C 32 30 32 39 30 39 2E 30 30 30
2C 0 
Got: $GPGGA,202908.000,4026.4115,N,07956.7757,W,2,10,0.90,281.5,M,-3$GPGGA,202909.000,
RSSI: -94
Sent a reply
Received: 
24 47 50 47 47 41 2C 32 30 32 39 31 31 2E 30 30
30 2C 34 30 32 36 2E 34 31 32 36 2C 4E 2C 30 37
39 35 36 2E 37 37 35 35 2C 57 2C 32 2C 31 30 2C
30 2E 39 30 2C 32 38 31 2E 35 2C 4D 2C 2D 33 24
47 50 47 47 41 2C 32 30 32 39 31 32 2E 30 30 30
2C 0 
Got: $GPGGA,202911.000,4026.4126,N,07956.7755,W,2,10,0.90,281.5,M,-3$GPGGA,202912.000,
RSSI: -96
Sent a reply
Received: 
24 47 50 47 47 41 2C 32 30 32 39 31 34 2E 30 30
30 2C 34 30 32 36 2E 34 31 33 37 2C 4E 2C 30 37
39 35 36 2E 37 37 35 30 2C 57 2C 32 2C 31 30 2C
30 2E 39 30 2C 32 38 31 2E 36 2C 4D 2C 2D 33 24
47 50 47 47 41 2C 32 30 32 39 31 35 2E 30 30 30
2C 0 
Got: $GPGGA,202914.000,4026.4137,N,07956.7750,W,2,10,0.90,281.6,M,-3$GPGGA,202915.000,
RSSI: -102
Sent a reply
Received: 
24 47 50 47 47 41 2C 32 30 32 39 31 37 2E 30 30
30 2C 34 30 32 36 2E 34 31 34 36 2C 4E 2C 30 37
39 35 36 2E 37 37 34 36 2C 57 2C 32 2C 31 30 2C
30 2E 38 39 2C 32 38 31 2E 37 2C 4D 2C 2D 33 24
47 50 47 47 41 2C 32 30 32 39 31 38 2E 30 30 30
2C 0 
Got: $GPGGA,202917.000,4026.4146,N,07956.7746,W,2,10,0.89,281.7,M,-3$GPGGA,202918.000,
RSSI: -94
Sent a reply
Received: 
24 47 50 47 47 41 2C 32 30 32 39 32 30 2E 30 30
30 2C 34 30 32 36 2E 34 31 35 36 2C 4E 2C 30 37
39 35 36 2E 37 37 34 34 2C 57 2C 32 2C 31 30 2C
30 2E 39 30 2C 32 38 31 2E 36 2C 4D 2C 2D 33 24
47 50 47 47 41 2C 32 30 32 39 32 31 2E 30 30 30
2C 0 
Got: $GPGGA,202920.000,4026.4156,N,07956.7744,W,2,10,0.90,281.6,M,-3$GPGGA,202921.000,
RSSI: -96
Sent a reply
Received: 
24 47 50 47 47 41 2C 32 30 32 39 32 33 2E 30 30
30 2C 34 30 32 36 2E 34 31 36 36 2C 4E 2C 30 37
39 35 36 2E 37 37 34 30 2C 57 2C 32 2C 31 30 2C
30 2E 38 39 2C 32 38 31 2E 35 2C 4D 2C 2D 33 24
47 50 47 47 41 2C 32 30 32 39 32 34 2E 30 30 30
2C 0 
Got: $GPGGA,202923.000,4026.4166,N,07956.7740,W,2,10,0.89,281.5,M,-3$GPGGA,202924.000,
RSSI: -92
Sent a reply
Received: 
24 47 50 47 47 41 2C 32 30 32 39 32 36 2E 30 30
30 2C 34 30 32 36 2E 34 31 37 35 2C 4E 2C 30 37
39 35 36 2E 37 37 34 30 2C 57 2C 32 2C 31 30 2C
30 2E 39 30 2C 32 38 31 2E 35 2C 4D 2C 2D 33 24
47 50 47 47 41 2C 32 30 32 39 32 37 2E 30 30 30
2C 0 
Got: $GPGGA,202926.000,4026.4175,N,07956.7740,W,2,10,0.90,281.5,M,-3$GPGGA,202927.000,
RSSI: -94
Sent a reply
Received: 
24 47 50 47 47 41 2C 32 30 32 39 32 39 2E 30 30
30 2C 34 30 32 36 2E 34 31 38 35 2C 4E 2C 30 37
39 35 36 2E 37 37 33 38 2C 57 2C 32 2C 31 30 2C
30 2E 39 30 2C 32 38 31 2E 35 2C 4D 2C 2D 33 24
47 50 47 47 41 2C 32 30 32 39 33 30 2E 30 30 30
2C 0 
Got: $GPGGA,202929.000,4026.4185,N,07956.7738,W,2,10,0.90,281.5,M,-3$GPGGA,202930.000,
RSSI: -94
Sent a reply
Received: 
24 47 50 47 47 41 2C 32 30 32 39 33 32 2E 30 30
30 2C 34 30 32 36 2E 34 31 39 33 2C 4E 2C 30 37
39 35 36 2E 37 37 33 36 2C 57 2C 32 2C 31 30 2C
30 2E 39 30 2C 32 38 31 2E 35 2C 4D 2C 2D 33 24
47 50 47 47 41 2C 32 30 32 39 33 33 2E 30 30 30
2C 0 
Got: $GPGGA,202932.000,4026.4193,N,07956.7736,W,2,10,0.90,281.5,M,-3$GPGGA,202933.000,
RSSI: -94
Sent a reply
Received: 
24 47 50 47 47 41 2C 32 30 32 39 33 35 2E 30 30
30 2C 34 30 32 36 2E 34 32 30 32 2C 4E 2C 30 37
39 35 36 2E 37 37 33 34 2C 57 2C 32 2C 31 30 2C
30 2E 39 30 2C 32 38 31 2E 36 2C 4D 2C 2D 33 24
47 50 47 47 41 2C 32 30 32 39 33 36 2E 30 30 30
2C 0 
Got: $GPGGA,202935.000,4026.4202,N,07956.7734,W,2,10,0.90,281.6,M,-3$GPGGA,202936.000,
RSSI: -94
Sent a reply
Received: 
24 47 50 47 47 41 2C 32 30 32 39 33 38 2E 30 30
30 2C 34 30 32 36 2E 34 32 31 33 2C 4E 2C 30 37
39 35 36 2E 37 37 33 31 2C 57 2C 32 2C 31 30 2C
30 2E 39 30 2C 32 38 31 2E 39 2C 4D 2C 2D 33 24
47 50 47 47 41 2C 32 30 32 39 33 39 2E 30 30 30
2C 0 
Got: $GPGGA,202938.000,4026.4213,N,07956.7731,W,2,10,0.90,281.9,M,-3$GPGGA,202939.000,
RSSI: -94
Sent a reply
Received: 
24 47 50 47 47 41 2C 32 30 32 39 34 31 2E 30 30
30 2C 34 30 32 36 2E 34 32 32 34 2C 4E 2C 30 37
39 35 36 2E 37 37 32 38 2C 57 2C 32 2C 31 30 2C
30 2E 38 39 2C 32 38 32 2E 31 2C 4D 2C 2D 33 24
47 50 47 47 41 2C 32 30 32 39 34 32 2E 30 30 30
2C 0 
Got: $GPGGA,202941.000,4026.4224,N,07956.7728,W,2,10,0.89,282.1,M,-3$GPGGA,202942.000,
RSSI: -92
Sent a reply
Received: 
24 47 50 47 47 41 2C 32 30 32 39 34 34 2E 30 30
30 2C 34 30 32 36 2E 34 32 33 35 2C 4E 2C 30 37
39 35 36 2E 37 37 32 38 2C 57 2C 32 2C 31 30 2C
30 2E 39 30 2C 32 38 32 2E 35 2C 4D 2C 2D 33 24
47 50 47 47 41 2C 32 30 32 39 34 35 2E 30 30 30
2C 0 
Got: $GPGGA,202944.000,4026.4235,N,07956.7728,W,2,10,0.90,282.5,M,-3$GPGGA,202945.000,
RSSI: -95
Sent a reply
Received: 
24 47 50 47 47 41 2C 32 30 32 39 34 37 2E 30 30
30 2C 34 30 32 36 2E 34 32 34 37 2C 4E 2C 30 37
39 35 36 2E 37 37 32 37 2C 57 2C 32 2C 31 30 2C
30 2E 39 30 2C 32 38 32 2E 39 2C 4D 2C 2D 33 24
47 50 47 47 41 2C 32 30 32 39 34 38 2E 30 30 30
2C 0 
Got: $GPGGA,202947.000,4026.4247,N,07956.7727,W,2,10,0.90,282.9,M,-3$GPGGA,202948.000,
RSSI: -94
Sent a reply
Received: 
24 47 50 47 47 41 2C 32 30 32 39 35 30 2E 30 30
30 2C 34 30 32 36 2E 34 32 35 38 2C 4E 2C 30 37
39 35 36 2E 37 37 32 34 2C 57 2C 32 2C 31 30 2C
30 2E 39 30 2C 32 38 33 2E 33 2C 4D 2C 2D 33 24
47 50 47 47 41 2C 32 30 32 39 35 31 2E 30 30 30
2C 0 
Got: $GPGGA,202950.000,4026.4258,N,07956.7724,W,2,10,0.90,283.3,M,-3$GPGGA,202951.000,
RSSI: -93
Sent a reply
Received: 
24 47 50 47 47 41 2C 32 30 32 39 35 33 2E 30 30
30 2C 34 30 32 36 2E 34 32 36 36 2C 4E 2C 30 37
39 35 36 2E 37 37 32 34 2C 57 2C 32 2C 31 30 2C
30 2E 39 30 2C 32 38 33 2E 37 2C 4D 2C 2D 33 24
47 50 47 47 41 2C 32 30 32 39 35 34 2E 30 30 30
2C 0 
Got: $GPGGA,202953.000,4026.4266,N,07956.7724,W,2,10,0.90,283.7,M,-3$GPGGA,202954.000,
RSSI: -93
Sent a reply
Received: 
24 47 50 47 47 41 2C 32 30 32 39 35 36 2E 30 30
30 2C 34 30 32 36 2E 34 32 37 37 2C 4E 2C 30 37
39 35 36 2E 37 37 32 35 2C 57 2C 32 2C 31 30 2C
30 2E 39 30 2C 32 38 34 2E 30 2C 4D 2C 2D 33 24
47 50 47 47 41 2C 32 30 32 39 35 37 2E 30 30 30
2C 0 
Got: $GPGGA,202956.000,4026.4277,N,07956.7725,W,2,10,0.90,284.0,M,-3$GPGGA,202957.000,
RSSI: -94
Sent a reply
Received: 
24 47 50 47 47 41 2C 32 30 32 39 35 39 2E 30 30
30 2C 34 30 32 36 2E 34 32 38 38 2C 4E 2C 30 37
39 35 36 2E 37 37 32 31 2C 57 2C 32 2C 31 30 2C
30 2E 39 30 2C 32 38 34 2E 31 2C 4D 2C 2D 33 24
47 50 47 47 41 2C 32 30 33 30 30 30 2E 30 30 30
2C 0 
Got: $GPGGA,202959.000,4026.4288,N,07956.7721,W,2,10,0.90,284.1,M,-3$GPGGA,203000.000,
RSSI: -95
Sent a reply
Received: 
24 47 50 47 47 41 2C 32 30 33 30 30 32 2E 30 30
30 2C 34 30 32 36 2E 34 32 39 37 2C 4E 2C 30 37
39 35 36 2E 37 37 32 32 2C 57 2C 32 2C 31 30 2C
30 2E 39 30 2C 32 38 34 2E 33 2C 4D 2C 2D 33 24
47 50 47 47 41 2C 32 30 33 30 30 33 2E 30 30 30
2C 0 
Got: $GPGGA,203002.000,4026.4297,N,07956.7722,W,2,10,0.90,284.3,M,-3$GPGGA,203003.000,
RSSI: -96
Sent a reply
Received: 
24 47 50 47 47 41 2C 32 30 33 30 30 35 2E 30 30
30 2C 34 30 32 36 2E 34 33 30 37 2C 4E 2C 30 37
39 35 36 2E 37 37 31 35 2C 57 2C 32 2C 31 30 2C
30 2E 39 30 2C 32 38 34 2E 38 2C 4D 2C 2D 33 24
47 50 47 47 41 2C 32 30 33 30 30 36 2E 30 30 30
2C 0 
Got: $GPGGA,203005.000,4026.4307,N,07956.7715,W,2,10,0.90,284.8,M,-3$GPGGA,203006.000,
RSSI: -97
Sent a reply
Received: 
24 47 50 47 47 41 2C 32 30 33 30 30 38 2E 30 30
30 2C 34 30 32 36 2E 34 33 31 38 2C 4E 2C 30 37
39 35 36 2E 37 37 31 33 2C 57 2C 32 2C 31 30 2C
30 2E 39 30 2C 32 38 34 2E 38 2C 4D 2C 2D 33 24
47 50 47 47 41 2C 32 30 33 30 30 39 2E 30 30 30
2C 0 
Got: $GPGGA,203008.000,4026.4318,N,07956.7713,W,2,10,0.90,284.8,M,-3$GPGGA,203009.000,
RSSI: -97
Sent a reply
Received: 
24 47 50 47 47 41 2C 32 30 33 30 31 31 2E 30 30
30 2C 34 30 32 36 2E 34 33 33 30 2C 4E 2C 30 37
39 35 36 2E 37 37 31 31 2C 57 2C 32 2C 31 30 2C
30 2E 39 30 2C 32 38 34 2E 38 2C 4D 2C 2D 33 24
47 50 47 47 41 2C 32 30 33 30 31 32 2E 30 30 30
2C 0 
Got: $GPGGA,203011.000,4026.4330,N,07956.7711,W,2,10,0.90,284.8,M,-3$GPGGA,203012.000,
RSSI: -97
Sent a reply
Received: 
24 47 50 47 47 41 2C 32 30 33 30 31 34 2E 30 30
30 2C 34 30 32 36 2E 34 33 34 31 2C 4E 2C 30 37
39 35 36 2E 37 37 30 36 2C 57 2C 32 2C 31 30 2C
30 2E 39 30 2C 32 38 35 2E 30 2C 4D 2C 2D 33 24
47 50 47 47 41 2C 32 30 33 30 31 35 2E 30 30 30
2C 0 
Got: $GPGGA,203014.000,4026.4341,N,07956.7706,W,2,10,0.90,285.0,M,-3$GPGGA,203015.000,
RSSI: -97
Sent a reply
Received: 
24 47 50 47 47 41 2C 32 30 33 30 31 37 2E 30 30
30 2C 34 30 32 36 2E 34 33 35 32 2C 4E 2C 30 37
39 35 36 2E 37 37 30 34 2C 57 2C 32 2C 31 30 2C
30 2E 39 30 2C 32 38 34 2E 37 2C 4D 2C 2D 33 24
47 50 47 47 41 2C 32 30 33 30 31 38 2E 30 30 30
2C 0 
Got: $GPGGA,203017.000,4026.4352,N,07956.7704,W,2,10,0.90,284.7,M,-3$GPGGA,203018.000,
RSSI: -102
Sent a reply
Received: 
24 47 50 47 47 41 2C 32 30 33 30 32 30 2E 30 30
30 2C 34 30 32 36 2E 34 33 36 31 2C 4E 2C 30 37
39 35 36 2E 37 37 30 32 2C 57 2C 32 2C 31 30 2C
30 2E 39 30 2C 32 38 34 2E 36 2C 4D 2C 2D 33 24
47 50 47 47 41 2C 32 30 33 30 32 31 2E 30 30 30
2C 0 
Got: $GPGGA,203020.000,4026.4361,N,07956.7702,W,2,10,0.90,284.6,M,-3$GPGGA,203021.000,
RSSI: -96
Sent a reply
Received: 
24 47 50 47 47 41 2C 32 30 33 30 32 33 2E 30 30
30 2C 34 30 32 36 2E 34 33 37 31 2C 4E 2C 30 37
39 35 36 2E 37 36 39 38 2C 57 2C 32 2C 31 30 2C
30 2E 39 30 2C 32 38 34 2E 39 2C 4D 2C 2D 33 24
47 50 47 47 41 2C 32 30 33 30 32 34 2E 30 30 30
2C 0 
Got: $GPGGA,203023.000,4026.4371,N,07956.7698,W,2,10,0.90,284.9,M,-3$GPGGA,203024.000,
RSSI: -108
Sent a reply
Received: 
24 47 50 47 47 41 2C 32 30 33 30 32 36 2E 30 30
30 2C 34 30 32 36 2E 34 33 38 30 2C 4E 2C 30 37
39 35 36 2E 37 36 39 33 2C 57 2C 32 2C 31 30 2C
30 2E 39 30 2C 32 38 35 2E 32 2C 4D 2C 2D 33 24
47 50 47 47 41 2C 32 30 33 30 32 37 2E 30 30 30
2C 0 
Got: $GPGGA,203026.000,4026.4380,N,07956.7693,W,2,10,0.90,285.2,M,-3$GPGGA,203027.000,
RSSI: -108
Sent a reply
Received: 
24 47 50 47 47 41 2C 32 30 33 30 32 39 2E 30 30
30 2C 34 30 32 36 2E 34 33 39 31 2C 4E 2C 30 37
39 35 36 2E 37 36 39 31 2C 57 2C 32 2C 31 30 2C
30 2E 39 30 2C 32 38 35 2E 33 2C 4D 2C 2D 33 24
47 50 47 47 41 2C 32 30 33 30 33 30 2E 30 30 30
2C 0 
Got: $GPGGA,203029.000,4026.4391,N,07956.7691,W,2,10,0.90,285.3,M,-3$GPGGA,203030.000,
RSSI: -105
Sent a reply
Received: 
24 47 50 47 47 41 2C 32 30 33 30 33 32 2E 30 30
30 2C 34 30 32 36 2E 34 34 30 32 2C 4E 2C 30 37
39 35 36 2E 37 36 39 30 2C 57 2C 32 2C 31 30 2C
30 2E 39 30 2C 32 38 34 2E 37 2C 4D 2C 2D 33 24
47 50 47 47 41 2C 32 30 33 30 33 33 2E 30 30 30
2C 0 
Got: $GPGGA,203032.000,4026.4402,N,07956.7690,W,2,10,0.90,284.7,M,-3$GPGGA,203033.000,
RSSI: -104
Sent a reply
Received: 
24 47 50 47 47 41 2C 32 30 33 30 33 35 2E 30 30
30 2C 34 30 32 36 2E 34 34 31 33 2C 4E 2C 30 37
39 35 36 2E 37 36 39 30 2C 57 2C 32 2C 31 30 2C
30 2E 39 30 2C 32 38 34 2E 35 2C 4D 2C 2D 33 24
47 50 47 47 41 2C 32 30 33 30 33 36 2E 30 30 30
2C 0 
Got: $GPGGA,203035.000,4026.4413,N,07956.7690,W,2,10,0.90,284.5,M,-3$GPGGA,203036.000,
RSSI: -107
Sent a reply
Received: 
24 47 50 47 47 41 2C 32 30 33 30 33 38 2E 30 30
30 2C 34 30 32 36 2E 34 34 32 34 2C 4E 2C 30 37
39 35 36 2E 37 36 39 31 2C 57 2C 32 2C 31 30 2C
30 2E 39 30 2C 32 38 34 2E 35 2C 4D 2C 2D 33 24
47 50 47 47 41 2C 32 30 33 30 33 39 2E 30 30 30
2C 0 
Got: $GPGGA,203038.000,4026.4424,N,07956.7691,W,2,10,0.90,284.5,M,-3$GPGGA,203039.000,
RSSI: -103
Sent a reply
Received: 
24 47 50 47 47 41 2C 32 30 33 30 34 31 2E 30 30
30 2C 34 30 32 36 2E 34 34 33 34 2C 4E 2C 30 37
39 35 36 2E 37 36 39 32 2C 57 2C 32 2C 31 30 2C
30 2E 39 30 2C 32 38 34 2E 35 2C 4D 2C 2D 33 24
47 50 47 47 41 2C 32 30 33 30 34 32 2E 30 30 30
2C 0 
Got: $GPGGA,203041.000,4026.4434,N,07956.7692,W,2,10,0.90,284.5,M,-3$GPGGA,203042.000,
RSSI: -103
Sent a reply
Received: 
24 47 50 47 47 41 2C 32 30 33 30 34 34 2E 30 30
30 2C 34 30 32 36 2E 34 34 34 34 2C 4E 2C 30 37
39 35 36 2E 37 36 39 32 2C 57 2C 99 2C 30 39 2C
31 2E 31 38 2C 32 38 34 2E 34 2C 4D 2C 2D 33 24
47 50 47 47 41 2C 32 30 33 30 34 35 2E 30 30 30
2C 0 
Got: $GPGGA,203044.000,4026.4444,N,07956.7692,W,™,09,1.18,284.4,M,-3$GPGGA,203045.000,
RSSI: -108
Sent a reply
Received: 
24 47 50 47 47 41 2C 32 30 33 30 34 37 2E 30 30
30 2C 34 30 32 36 2E 34 34 35 35 2C 4E 2C 30 37
39 35 36 2E 37 36 38 39 2C 57 2C 32 2C 31 30 2C
30 2E 38 39 2C 32 38 34 2E 34 2C 4D 2C 2D 33 24
47 50 47 47 41 2C 32 30 33 30 34 38 2E 30 30 30
2C 0 
Got: $GPGGA,203047.000,4026.4455,N,07956.7689,W,2,10,0.89,284.4,M,-3$GPGGA,203048.000,
RSSI: -110
Sent a reply
Received: 
24 47 50 47 47 41 2C 32 30 33 30 35 30 2E 30 30
30 2C 34 30 32 36 2E 34 34 36 34 2C 4E 2C 30 37
39 35 36 2E 37 36 38 37 2C 57 2C 32 2C 31 30 2C
30 2E 38 39 2C 32 38 34 2E 34 2C 4D 2C 2D 33 24
47 50 47 47 41 2C 32 30 33 30 35 31 2E 30 30 30
2C 0 
Got: $GPGGA,203050.000,4026.4464,N,07956.7687,W,2,10,0.89,284.4,M,-3$GPGGA,203051.000,
RSSI: -109
Sent a reply
Received: 
24 47 50 47 47 41 2C 32 30 33 30 35 33 2E 30 30
30 2C 34 30 32 36 2E 34 34 37 33 2C 4E 2C 30 37
39 35 36 2E 37 36 38 36 2C 57 2C 32 2C 31 30 2C
30 2E 39 30 2C 32 38 34 2E 37 2C 4D 2C 2D 33 24
47 50 47 47 41 2C 32 30 33 30 35 34 2E 30 30 30
2C 0 
Got: $GPGGA,203053.000,4026.4473,N,07956.7686,W,2,10,0.90,284.7,M,-3$GPGGA,203054.000,
RSSI: -104
Sent a reply
Received: 
24 47 50 47 47 41 2C 32 30 33 30 35 36 2E 30 30
30 2C 34 30 32 36 2E 34 34 38 33 2C 4E 2C 30 37
39 35 36 2E 37 36 38 36 2C 57 2C 32 2C 31 30 2C
30 2E 39 30 2C 32 38 34 2E 39 2C 4D 2C 2D 33 24
47 50 47 47 41 2C 32 30 33 30 35 37 2E 30 30 30
2C 0 
Got: $GPGGA,203056.000,4026.4483,N,07956.7686,W,2,10,0.90,284.9,M,-3$GPGGA,203057.000,
RSSI: -109
Sent a reply
Received: 
24 47 50 47 47 41 2C 32 30 33 31 30 30 2E 30 30
30 2C 34 30 32 36 2E 34 34 39 36 2C 4E 2C 30 37
39 35 36 2E 37 36 38 33 2C 57 2C 32 2C 31 30 2C
30 2E 39 30 2C 32 38 34 2E 39 2C 4D 2C 2D 33 24
47 50 47 47 41 2C 32 30 33 31 30 31 2E 30 30 30
2C 0 
Got: $GPGGA,203100.000,4026.4496,N,07956.7683,W,2,10,0.90,284.9,M,-3$GPGGA,203101.000,
RSSI: -105
Sent a reply
Received: 
24 47 50 47 47 41 2C 32 30 33 31 30 33 2E 30 30
30 2C 34 30 32 36 2E 34 35 30 34 2C 4E 2C 30 37
39 35 36 2E 37 36 38 33 2C 57 2C 32 2C 30 39 2C
30 2E 39 34 2C 32 38 34 2E 38 2C 4D 2C 2D 33 24
47 50 47 47 41 2C 32 30 33 31 30 34 2E 30 30 30
2C 0 
Got: $GPGGA,203103.000,4026.4504,N,07956.7683,W,2,09,0.94,284.8,M,-3$GPGGA,203104.000,
RSSI: -110
Sent a reply
Received: 
24 47 50 47 47 41 2C 32 30 33 31 30 36 2E 30 30
30 2C 34 30 32 36 2E 34 35 30 36 2C 4E 2C 30 37
39 35 36 2E 37 36 38 34 2C 57 2C 32 2C 31 30 2C
30 2E 39 30 2C 32 38 35 2E 31 2C 4D 2C 2D 33 24
47 50 47 47 41 2C 32 30 33 31 30 37 2E 30 30 30
2C 0 
Got: $GPGGA,203106.000,4026.4506,N,07956.7684,W,2,10,0.90,285.1,M,-3$GPGGA,203107.000,
RSSI: -107
Sent a reply
Received: 
24 47 50 47 47 41 2C 32 30 33 31 30 39 2E 30 30
30 2C 34 30 32 36 2E 34 35 30 35 2C 4E 2C 30 37
39 35 36 2E 37 36 38 35 2C 57 2C 32 2C 30 39 2C
31 2E 31 38 2C 32 38 35 2E 32 2C 4D 2C 2D 33 24
47 50 47 47 41 2C 32 30 33 31 31 30 2E 30 30 30
2C 0 
Got: $GPGGA,203109.000,4026.4505,N,07956.7685,W,2,09,1.18,285.2,M,-3$GPGGA,203110.000,
RSSI: -109
Sent a reply
Received: 
24 47 50 47 47 41 2C 32 30 33 31 31 32 2E 30 30
30 2C 34 30 32 36 2E 34 35 30 36 2C 4E 2C 30 37
39 35 36 2E 37 36 38 35 2C 57 2C 32 2C 31 30 2C
30 2E 38 39 2C 32 38 35 2E 32 2C 4D 2C 2D 33 24
47 50 47 47 41 2C 32 30 33 31 31 33 2E 30 30 30
2C 0 
Got: $GPGGA,203112.000,4026.4506,N,07956.7685,W,2,10,0.89,285.2,M,-3$GPGGA,203113.000,
RSSI: -108
Sent a reply
Received: 
24 47 50 47 47 41 2C 32 30 33 31 31 35 2E 30 30
30 2C 34 30 32 36 2E 34 35 30 36 2C 4E 2C 30 37
39 35 36 2E 37 36 38 38 2C 57 2C 32 2C 31 30 2C
30 2E 38 39 2C 32 38 35 2E 33 2C 4D 2C 2D 33 24
47 50 47 47 41 2C 32 30 33 31 31 36 2E 30 30 30
2C 0 
Got: $GPGGA,203115.000,4026.4506,N,07956.7688,W,2,10,0.89,285.3,M,-3$GPGGA,203116.000,
RSSI: -107
Sent a reply
Received: 
24 47 50 47 47 41 2C 32 30 33 31 31 38 2E 30 30
30 2C 34 30 32 36 2E 34 35 30 36 2C 4E 2C 30 37
39 35 36 2E 37 36 38 37 2C 57 2C 32 2C 31 30 2C
30 2E 38 39 2C 32 38 35 2E 33 2C 4D 2C 2D 33 24
47 50 47 47 41 2C 32 30 33 31 31 39 2E 30 30 30
2C 0 
Got: $GPGGA,203118.000,4026.4506,N,07956.7687,W,2,10,0.89,285.3,M,-3$GPGGA,203119.000,
RSSI: -105
Sent a reply
Received: 
24 47 50 47 47 41 2C 32 30 33 31 33 30 2E 30 30
30 2C 34 30 32 36 2E 34 35 33 38 2C 4E 2C 30 37
39 35 36 2E 37 36 38 34 2C 57 2C 32 2C 31 30 2C
30 2E 39 30 2C 32 38 35 2E 34 2C 4D 2C 2D 33 24
47 50 47 47 41 2C 32 30 33 31 33 31 2E 30 30 30
2C 0 
Got: $GPGGA,203130.000,4026.4538,N,07956.7684,W,2,10,0.90,285.4,M,-3$GPGGA,203131.000,
RSSI: -110
Sent a reply
Received: 
24 47 50 47 47 41 2C 32 30 33 31 33 37 2E 30 30
30 2C 34 30 32 36 2E 34 35 33 39 2C 4E 2C 30 37
39 35 36 2E 37 36 38 32 2C 57 2C 32 2C 31 30 2C
30 2E 38 39 2C 32 38 35 2E 35 2C 4D 2C 2D 33 24
47 50 47 47 41 2C 32 30 33 31 33 38 2E 30 30 30
2C 0 
Got: $GPGGA,203137.000,4026.4539,N,07956.7682,W,2,10,0.89,285.5,M,-3$GPGGA,203138.000,
RSSI: -108
Sent a reply
Received: 
24 47 50 47 47 41 2C 32 30 33 31 34 30 2E 30 30
30 2C 34 30 32 36 2E 34 35 34 31 2C 4E 2C 30 37
39 35 36 2E 37 36 38 32 2C 57 2C 32 2C 31 30 2C
30 2E 39 30 2C 32 38 35 2E 35 2C 4D 2C 2D 33 24
47 50 47 47 41 2C 32 30 33 31 34 31 2E 30 30 30
2C 0 
Got: $GPGGA,203140.000,4026.4541,N,07956.7682,W,2,10,0.90,285.5,M,-3$GPGGA,203141.000,
RSSI: -104
Sent a reply
Received: 
24 47 50 47 47 41 2C 32 30 33 31 34 33 2E 30 30
30 2C 34 30 32 36 2E 34 35 34 36 2C 4E 2C 30 37
39 35 36 2E 37 36 38 32 2C 57 2C 32 2C 31 30 2C
30 2E 39 30 2C 32 38 35 2E 35 2C 4D 2C 2D 33 24
47 50 47 47 41 2C 32 30 33 31 34 34 2E 30 30 30
2C 0 
Got: $GPGGA,203143.000,4026.4546,N,07956.7682,W,2,10,0.90,285.5,M,-3$GPGGA,203144.000,
RSSI: -108
Sent a reply
Received: 
24 47 50 47 47 41 2C 32 30 33 31 34 36 2E 30 30
30 2C 34 30 32 36 2E 34 35 35 34 2C 4E 2C 30 37
39 35 36 2E 37 36 37 38 2C 57 2C 32 2C 31 30 2C
30 2E 39 30 2C 32 38 35 2E 34 2C 4D 2C 2D 33 24
47 50 47 47 41 2C 32 30 33 31 34 37 2E 30 30 30
2C 0 
Got: $GPGGA,203146.000,4026.4554,N,07956.7678,W,2,10,0.90,285.4,M,-3$GPGGA,203147.000,
RSSI: -104
Sent a reply
Received: 
24 47 50 47 47 41 2C 32 30 33 31 34 39 2E 30 30
30 2C 34 30 32 36 2E 34 35 35 36 2C 4E 2C 30 37
39 35 36 2E 37 36 38 31 2C 57 2C 32 2C 31 30 2C
30 2E 38 39 2C 32 38 35 2E 33 2C 4D 2C 2D 33 24
47 50 47 47 41 2C 32 30 33 31 35 30 2E 30 30 30
2C 0 
Got: $GPGGA,203149.000,4026.4556,N,07956.7681,W,2,10,0.89,285.3,M,-3$GPGGA,203150.000,
RSSI: -106
Sent a reply
Received: 
24 47 50 47 47 41 2C 32 30 33 31 35 32 2E 30 30
30 2C 34 30 32 36 2E 34 35 36 31 2C 4E 2C 30 37
39 35 36 2E 37 36 38 33 2C 57 2C 32 2C 31 30 2C
30 2E 39 30 2C 32 38 35 2E 34 2C 4D 2C 2D 33 24
47 50 47 47 41 2C 32 30 33 31 35 33 2E 30 30 30
2C 0 
Got: $GPGGA,203152.000,4026.4561,N,07956.7683,W,2,10,0.90,285.4,M,-3$GPGGA,203153.000,
RSSI: -104
Sent a reply
Received: 
24 47 50 47 47 41 2C 32 30 33 32 30 30 2E 30 30
30 2C 34 30 32 36 2E 34 35 38 30 2C 4E 2C 30 37
39 35 36 2E 37 36 37 39 2C 57 2C 32 2C 31 30 2C
30 2E 38 39 2C 32 38 35 2E 36 2C 4D 2C 2D 33 24
47 50 47 47 41 2C 32 30 33 32 30 31 2E 30 30 30
2C 0 
Got: $GPGGA,203200.000,4026.4580,N,07956.7679,W,2,10,0.89,285.6,M,-3$GPGGA,203201.000,
RSSI: -103
Sent a reply
Received: 
24 47 50 47 47 41 2C 32 30 33 32 31 31 2E 30 30
30 2C 34 30 32 36 2E 34 36 30 39 2C 4E 2C 30 37
39 35 36 2E 37 36 36 37 2C 57 2C 32 2C 31 30 2C
30 2E 39 30 2C 32 38 35 2E 31 2C 4D 2C 2D 33 24
47 50 47 47 41 2C 32 30 33 32 31 32 2E 30 30 30
2C 0 
Got: $GPGGA,203211.000,4026.4609,N,07956.7667,W,2,10,0.90,285.1,M,-3$GPGGA,203212.000,
RSSI: -107
Sent a reply
Received: 
24 47 50 47 47 41 2C 32 30 33 32 31 34 2E 30 30
30 2C 34 30 32 36 2E 34 36 31 32 2C 4E 2C 30 37
39 35 36 2E 37 36 36 35 2C 57 2C 32 2C 31 30 2C
30 2E 38 38 2C 32 38 34 2E 39 2C 4D 2C 2D 33 24
47 50 47 47 41 2C 32 30 33 32 31 35 2E 30 30 30
2C 0 
Got: $GPGGA,203214.000,4026.4612,N,07956.7665,W,2,10,0.88,284.9,M,-3$GPGGA,203215.000,
RSSI: -110
Sent a reply
Received: 
24 47 50 47 47 41 2C 32 30 33 32 32 38 2E 30 30
30 2C 34 30 32 36 2E 34 36 31 35 2C 4E 2C 30 37
39 35 36 2E 37 36 35 38 2C 57 2C 32 2C 31 30 2C
30 2E 39 30 2C 32 38 34 2E 36 2C 4D 2C 2D 33 32
2C 32 34 2C 30 35 30 2C 32 37 2C 30 31 2C 32 30
2C 0 
Got: $GPGGA,203228.000,4026.4615,N,07956.7658,W,2,10,0.90,284.6,M,-32,24,050,27,01,20,
RSSI: -106
Sent a reply
Received: 
24 47 50 47 47 41 2C 32 30 33 32 33 35 2E 30 30
30 2C 34 30 32 36 2E 34 36 32 30 2C 4E 2C 30 37
39 35 36 2E 37 36 35 32 2C 57 2C 32 2C 31 30 2C
30 2E 38 38 2C 32 38 34 2E 35 2C 4D 2C 2D 33 2C
54 2C 2C 4D 2C 30 2E 32 33 2C 4E 2C 30 2E 34 33
2C 0 
Got: $GPGGA,203235.000,4026.4620,N,07956.7652,W,2,10,0.88,284.5,M,-3,T,,M,0.23,N,0.43,
RSSI: -97
Sent a reply
Received: 
24 47 50 47 47 41 2C 32 30 33 32 33 36 2E 30 30
30 2C 34 30 32 36 2E 34 36 32 31 2C 4E 2C 30 37
39 35 36 2E 37 36 35 32 2C 57 2C 32 2C 31 30 2C
30 2E 38 38 2C 32 38 34 2E 36 2C 4D 2C 2D 33 24
47 50 47 47 41 2C 32 30 33 32 33 37 2E 30 30 30
2C 0 
Got: $GPGGA,203236.000,4026.4621,N,07956.7652,W,2,10,0.88,284.6,M,-3$GPGGA,203237.000,
RSSI: -102
Sent a reply
Received: 
24 47 50 47 47 41 2C 32 30 33 32 33 39 2E 30 30
30 2C 34 30 32 36 2E 34 36 32 31 2C 4E 2C 30 37
39 35 36 2E 37 36 35 33 2C 57 2C 32 2C 31 30 2C
30 2E 38 38 2C 32 38 34 2E 36 2C 4D 2C 2D 33 24
47 50 47 47 41 2C 32 30 33 32 34 30 2E 30 30 30
2C 0 
Got: $GPGGA,203239.000,4026.4621,N,07956.7653,W,2,10,0.88,284.6,M,-3$GPGGA,203240.000,
RSSI: -105
Sent a reply
Received: 
24 47 50 47 47 41 2C 32 30 33 32 34 36 2E 30 30
30 2C 34 30 32 36 2E 34 36 32 30 2C 4E 2C 30 37
39 35 36 2E 37 36 35 36 2C 57 2C 32 2C 31 30 2C
30 2E 38 38 2C 32 38 34 2E 36 2C 4D 2C 2D 33 30
2E 31 36 2C 4E 2C 30 2E 33 30 2C 4B 2C 44 2A 30
43 0 
Got: $GPGGA,203246.000,4026.4620,N,07956.7656,W,2,10,0.88,284.6,M,-30.16,N,0.30,K,D*0C
RSSI: -107
Sent a reply
Received: 
24 47 50 47 47 41 2C 32 30 33 32 34 37 2E 30 30
30 2C 34 30 32 36 2E 34 36 32 30 2C 4E 2C 30 37
39 35 36 2E 37 36 35 36 2C 57 2C 32 2C 31 30 2C
30 2E 38 38 2C 32 38 34 2E 36 2C 4D 2C 2D 33 24
47 50 47 47 41 2C 32 30 33 32 34 38 2E 30 30 30
2C 0 
Got: $GPGGA,203247.000,4026.4620,N,07956.7656,W,2,10,0.88,284.6,M,-3$GPGGA,203248.000,
RSSI: -106
Sent a reply
Received: 
24 47 50 47 47 41 2C 32 30 33 32 35 30 2E 30 30
30 2C 34 30 32 36 2E 34 36 32 30 2C 4E 2C 30 37
39 35 36 2E 37 36 35 36 2C 57 2C 32 2C 31 30 2C
30 2E 38 39 2C 32 38 34 2E 36 2C 4D 2C 2D 33 24
47 50 47 47 41 2C 32 30 33 32 35 31 2E 30 30 30
2C 0 
Got: $GPGGA,203250.000,4026.4620,N,07956.7656,W,2,10,0.89,284.6,M,-3$GPGGA,203251.000,
RSSI: -104
Sent a reply
Received: 
24 47 50 47 47 41 2C 32 30 33 32 35 33 2E 30 30
30 2C 34 30 32 36 2E 34 36 31 36 2C 4E 2C 30 37
39 35 36 2E 37 36 36 36 2C 57 2C 32 2C 31 30 2C
30 2E 38 38 2C 32 38 34 2E 37 2C 4D 2C 2D 33 24
47 50 47 47 41 2C 32 30 33 32 35 34 2E 30 30 30
2C 0 
Got: $GPGGA,203253.000,4026.4616,N,07956.7666,W,2,10,0.88,284.7,M,-3$GPGGA,203254.000,
RSSI: -105
Sent a reply
Received: 
24 47 50 47 47 41 2C 32 30 33 34 30 38 2E 30 30
30 2C 34 30 32 36 2E 34 35 35 34 2C 4E 2C 30 37
39 35 36 2E 37 38 31 36 2C 57 2C 32 2C 30 39 2C
30 2E 39 33 2C 32 38 34 2E 33 2C 4D 2C 2D 33 43
2C 32 30 33 34 30 38 2E 30 30 30 2C 41 2C 34 30
32 0 
Got: $GPGGA,203408.000,4026.4554,N,07956.7816,W,2,09,0.93,284.3,M,-3C,203408.000,A,402
RSSI: -104
Sent a reply
Received: 
24 47 50 47 47 41 2C 32 30 33 34 31 30 2E 30 30
30 2C 34 30 32 36 2E 34 35 35 32 2C 4E 2C 30 37
39 35 36 2E 37 38 31 37 2C 57 2C 32 2C 30 39 2C
30 2E 39 33 2C 32 38 34 2E 35 2C 4D 2C 2D 33 35
32 2C 4E 2C 30 37 39 35 36 2E 37 38 31 37 2C 57
2C 0 
Got: $GPGGA,203410.000,4026.4552,N,07956.7817,W,2,09,0.93,284.5,M,-352,N,07956.7817,W,
RSSI: -109
Sent a reply
Received: 
24 47 50 47 47 41 2C 32 30 33 34 31 33 2E 30 30
30 2C 34 30 32 36 2E 34 35 35 32 2C 4E 2C 30 37
39 35 36 2E 37 38 31 37 2C 57 2C 32 2C 30 39 2C
30 2E 39 33 2C 32 38 34 2E 35 2C 4D 2C 2D 33 24
47 50 47 47 41 2C 32 30 33 34 31 34 2E 30 30 30
2C 0 
Got: $GPGGA,203413.000,4026.4552,N,07956.7817,W,2,09,0.93,284.5,M,-3$GPGGA,203414.000,
RSSI: -104
Sent a reply
Received: 
24 47 50 47 47 41 2C 32 30 33 34 31 36 2E 30 30
30 2C 34 30 32 36 2E 34 35 34 35 2C 4E 2C 30 37
39 35 36 2E 37 38 32 32 2C 57 2C 32 2C 30 39 2C
30 2E 39 33 2C 32 38 34 2E 35 2C 4D 2C 2D 33 24
47 50 47 47 41 2C 32 30 33 34 31 37 2E 30 30 30
2C 0 
Got: $GPGGA,203416.000,4026.4545,N,07956.7822,W,2,09,0.93,284.5,M,-3$GPGGA,203417.000,
RSSI: -100
Sent a reply
Received: 
24 47 50 47 47 41 2C 32 30 33 34 31 39 2E 30 30
30 2C 34 30 32 36 2E 34 35 32 38 2C 4E 2C 30 37
39 35 36 2E 37 38 32 38 2C 57 2C 32 2C 30 39 2C
30 2E 39 33 2C 32 38 34 2E 35 2C 4D 2C 2D 33 24
47 50 47 47 41 2C 32 30 33 34 32 30 2E 30 30 30
2C 0 
Got: $GPGGA,203419.000,4026.4528,N,07956.7828,W,2,09,0.93,284.5,M,-3$GPGGA,203420.000,
RSSI: -111
Sent a reply
Received: 
24 47 50 47 47 41 2C 32 30 33 34 32 32 2E 30 30
30 2C 34 30 32 36 2E 34 35 30 39 2C 4E 2C 30 37
39 35 36 2E 37 38 33 32 2C 57 2C 32 2C 30 39 2C
30 2E 39 33 2C 32 38 34 2E 35 2C 4D 2C 2D 33 24
47 50 47 47 41 2C 32 30 33 34 32 33 2E 30 30 30
2C 0 
Got: $GPGGA,203422.000,4026.4509,N,07956.7832,W,2,09,0.93,284.5,M,-3$GPGGA,203423.000,
RSSI: -97
Sent a reply
Received: 
24 47 50 47 47 41 2C 32 30 33 34 32 35 2E 30 30
30 2C 34 30 32 36 2E 34 34 38 38 2C 4E 2C 30 37
39 35 36 2E 37 38 33 31 2C 57 2C 32 2C 30 39 2C
30 2E 39 33 2C 32 38 35 2E 31 2C 4D 2C 2D 33 24
47 50 47 47 41 2C 32 30 33 34 32 36 2E 30 30 30
2C 0 
Got: $GPGGA,203425.000,4026.4488,N,07956.7831,W,2,09,0.93,285.1,M,-3$GPGGA,203426.000,
RSSI: -107
Sent a reply
Received: 
24 47 50 47 47 41 2C 32 30 33 34 32 38 2E 30 30
30 2C 34 30 32 36 2E 34 34 37 30 2C 4E 2C 30 37
39 35 36 2E 37 38 32 38 2C 57 2C 32 2C 30 39 2C
30 2E 39 33 2C 32 38 35 2E 32 2C 4D 2C 2D 33 24
47 50 47 47 41 2C 32 30 33 34 32 39 2E 30 30 30
2C 0 
Got: $GPGGA,203428.000,4026.4470,N,07956.7828,W,2,09,0.93,285.2,M,-3$GPGGA,203429.000,
RSSI: -105
Sent a reply
Received: 
24 47 50 47 47 41 2C 32 30 33 34 33 31 2E 30 30
30 2C 34 30 32 36 2E 34 34 35 31 2C 4E 2C 30 37
39 35 36 2E 37 38 32 35 2C 57 2C 32 2C 30 39 2C
30 2E 39 33 2C 32 38 35 2E 36 2C 4D 2C 2D 33 24
47 50 47 47 41 2C 32 30 33 34 33 32 2E 30 30 30
2C 0 
Got: $GPGGA,203431.000,4026.4451,N,07956.7825,W,2,09,0.93,285.6,M,-3$GPGGA,203432.000,
RSSI: -110
Sent a reply
Received: 
24 47 50 47 47 41 2C 32 30 33 34 33 34 2E 30 30
30 2C 34 30 32 36 2E 34 34 33 34 2C 4E 2C 30 37
39 35 36 2E 37 38 32 35 2C 57 2C 32 2C 30 39 2C
30 2E 39 33 2C 32 38 35 2E 37 2C 4D 2C 2D 33 24
47 50 47 47 41 2C 32 30 33 34 33 35 2E 30 30 30
2C 0 
Got: $GPGGA,203434.000,4026.4434,N,07956.7825,W,2,09,0.93,285.7,M,-3$GPGGA,203435.000,
RSSI: -106
Sent a reply
Received: 
24 47 50 47 47 41 2C 32 30 33 34 33 37 2E 30 30
30 2C 34 30 32 36 2E 34 34 31 35 2C 4E 2C 30 37
39 35 36 2E 37 38 32 37 2C 57 2C 32 2C 30 39 2C
30 2E 39 33 2C 32 38 35 2E 38 2C 4D 2C 2D 33 24
47 50 47 47 41 2C 32 30 33 34 33 38 2E 30 30 30
2C 0 
Got: $GPGGA,203437.000,4026.4415,N,07956.7827,W,2,09,0.93,285.8,M,-3$GPGGA,203438.000,
RSSI: -102
Sent a reply
Received: 
24 47 50 47 47 41 2C 32 30 33 34 34 30 2E 30 30
30 2C 34 30 32 36 2E 34 33 39 37 2C 4E 2C 30 37
39 35 36 2E 37 38 32 37 2C 57 2C 32 2C 30 39 2C
30 2E 39 33 2C 32 38 35 2E 36 2C 4D 2C 2D 33 24
47 50 47 47 41 2C 32 30 33 34 34 31 2E 30 30 30
2C 0 
Got: $GPGGA,203440.000,4026.4397,N,07956.7827,W,2,09,0.93,285.6,M,-3$GPGGA,203441.000,
RSSI: -108
Sent a reply
Received: 
24 47 50 47 47 41 2C 32 30 33 34 34 33 2E 30 30
30 2C 34 30 32 36 2E 34 33 37 39 2C 4E 2C 30 37
39 35 36 2E 37 38 33 31 2C 57 2C 32 2C 30 39 2C
30 2E 39 33 2C 32 38 35 2E 36 2C 4D 2C 2D 33 24
47 50 47 47 41 2C 32 30 33 34 34 34 2E 30 30 30
2C 0 
Got: $GPGGA,203443.000,4026.4379,N,07956.7831,W,2,09,0.93,285.6,M,-3$GPGGA,203444.000,
RSSI: -103
Sent a reply
Received: 
24 47 50 47 47 41 2C 32 30 33 34 34 36 2E 30 30
30 2C 34 30 32 36 2E 34 33 36 30 2C 4E 2C 30 37
39 35 36 2E 37 38 33 36 2C 57 2C 32 2C 30 39 2C
30 2E 39 33 2C 32 38 35 2E 34 2C 4D 2C 2D 33 24
47 50 47 47 41 2C 32 30 33 34 34 37 2E 30 30 30
2C 0 
Got: $GPGGA,203446.000,4026.4360,N,07956.7836,W,2,09,0.93,285.4,M,-3$GPGGA,203447.000,
RSSI: -96
Sent a reply
Received: 
24 47 50 47 47 41 2C 32 30 33 34 34 39 2E 30 30
30 2C 34 30 32 36 2E 34 33 34 30 2C 4E 2C 30 37
39 35 36 2E 37 38 33 39 2C 57 2C 32 2C 30 39 2C
30 2E 39 33 2C 32 38 35 2E 33 2C 4D 2C 2D 33 24
47 50 47 47 41 2C 32 30 33 34 35 30 2E 30 30 30
2C 0 
Got: $GPGGA,203449.000,4026.4340,N,07956.7839,W,2,09,0.93,285.3,M,-3$GPGGA,203450.000,
RSSI: -97
Sent a reply
Received: 
24 47 50 47 47 41 2C 32 30 33 34 35 32 2E 30 30
30 2C 34 30 32 36 2E 34 33 32 31 2C 4E 2C 30 37
39 35 36 2E 37 38 34 32 2C 57 2C 32 2C 30 39 2C
30 2E 39 33 2C 32 38 35 2E 32 2C 4D 2C 2D 33 24
47 50 47 47 41 2C 32 30 33 34 35 33 2E 30 30 30
2C 0 
Got: $GPGGA,203452.000,4026.4321,N,07956.7842,W,2,09,0.93,285.2,M,-3$GPGGA,203453.000,
RSSI: -96
Sent a reply
Received: 
24 47 50 47 47 41 2C 32 30 33 34 35 35 2E 30 30
30 2C 34 30 32 36 2E 34 33 30 32 2C 4E 2C 30 37
39 35 36 2E 37 38 34 32 2C 57 2C 32 2C 30 39 2C
30 2E 39 33 2C 32 38 35 2E 31 2C 4D 2C 2D 33 24
47 50 47 47 41 2C 32 30 33 34 35 36 2E 30 30 30
2C 0 
Got: $GPGGA,203455.000,4026.4302,N,07956.7842,W,2,09,0.93,285.1,M,-3$GPGGA,203456.000,
RSSI: -97
Sent a reply
Received: 
24 47 50 47 47 41 2C 32 30 33 34 35 38 2E 30 30
30 2C 34 30 32 36 2E 34 32 38 33 2C 4E 2C 30 37
39 35 36 2E 37 38 34 36 2C 57 2C 32 2C 30 39 2C
30 2E 39 33 2C 32 38 34 2E 37 2C 4D 2C 2D 33 24
47 50 47 47 41 2C 32 30 33 34 35 39 2E 30 30 30
2C 0 
Got: $GPGGA,203458.000,4026.4283,N,07956.7846,W,2,09,0.93,284.7,M,-3$GPGGA,203459.000,
RSSI: -94
Sent a reply
Received: 
24 47 50 47 47 41 2C 32 30 33 35 30 31 2E 30 30
30 2C 34 30 32 36 2E 34 32 36 32 2C 4E 2C 30 37
39 35 36 2E 37 38 34 35 2C 57 2C 32 2C 31 30 2C
30 2E 38 34 2C 32 38 33 2E 38 2C 4D 2C 2D 33 2E
37 38 34 36 2C 57 2C 32 2C 31 30 2C 30 2E 38 34
2C 0 
Got: $GPGGA,203501.000,4026.4262,N,07956.7845,W,2,10,0.84,283.8,M,-3.7846,W,2,10,0.84,
RSSI: -94
Sent a reply
Received: 
24 47 50 47 47 41 2C 32 30 33 35 30 34 2E 30 30
30 2C 34 30 32 36 2E 34 32 33 37 2C 4E 2C 30 37
39 35 36 2E 37 38 34 38 2C 57 2C 32 2C 31 30 2C
30 2E 38 34 2C 32 38 33 2E 33 2C 4D 2C 2D 33 24
47 50 47 47 41 2C 32 30 33 35 30 35 2E 30 30 30
2C 0 
Got: $GPGGA,203504.000,4026.4237,N,07956.7848,W,2,10,0.84,283.3,M,-3$GPGGA,203505.000,
RSSI: -94
Sent a reply
Received: 
24 47 50 47 47 41 2C 32 30 33 35 30 37 2E 30 30
30 2C 34 30 32 36 2E 34 32 31 35 2C 4E 2C 30 37
39 35 36 2E 37 38 34 39 2C 57 2C 32 2C 31 30 2C
30 2E 38 34 2C 32 38 32 2E 34 2C 4D 2C 2D 33 24
47 50 47 47 41 2C 32 30 33 35 30 38 2E 30 30 30
2C 0 
Got: $GPGGA,203507.000,4026.4215,N,07956.7849,W,2,10,0.84,282.4,M,-3$GPGGA,203508.000,
RSSI: -93
Sent a reply
Received: 
24 47 50 47 47 41 2C 32 30 33 35 31 30 2E 30 30
30 2C 34 30 32 36 2E 34 31 39 36 2C 4E 2C 30 37
39 35 36 2E 37 38 35 31 2C 57 2C 32 2C 31 30 2C
30 2E 38 34 2C 32 38 31 2E 39 2C 4D 2C 2D 33 24
47 50 47 47 41 2C 32 30 33 35 31 31 2E 30 30 30
2C 0 
Got: $GPGGA,203510.000,4026.4196,N,07956.7851,W,2,10,0.84,281.9,M,-3$GPGGA,203511.000,
RSSI: -94
Sent a reply
Received: 
24 47 50 47 47 41 2C 32 30 33 35 31 33 2E 30 30
30 2C 34 30 32 36 2E 34 31 37 37 2C 4E 2C 30 37
39 35 36 2E 37 38 35 33 2C 57 2C 32 2C 31 30 2C
30 2E 38 34 2C 32 38 31 2E 36 2C 4D 2C 2D 33 24
47 50 47 47 41 2C 32 30 33 35 31 34 2E 30 30 30
2C 0 
Got: $GPGGA,203513.000,4026.4177,N,07956.7853,W,2,10,0.84,281.6,M,-3$GPGGA,203514.000,
RSSI: -93
Sent a reply
Received: 
24 47 50 47 47 41 2C 32 30 33 35 31 36 2E 30 30
30 2C 34 30 32 36 2E 34 31 36 30 2C 4E 2C 30 37
39 35 36 2E 37 38 35 33 2C 57 2C 32 2C 31 30 2C
30 2E 38 34 2C 32 38 31 2E 32 2C 4D 2C 2D 33 24
47 50 47 47 41 2C 32 30 33 35 31 37 2E 30 30 30
2C 0 
Got: $GPGGA,203516.000,4026.4160,N,07956.7853,W,2,10,0.84,281.2,M,-3$GPGGA,203517.000,
RSSI: -95
Sent a reply
Received: 
24 47 50 47 47 41 2C 32 30 33 35 31 39 2E 30 30
30 2C 34 30 32 36 2E 34 31 33 38 2C 4E 2C 30 37
39 35 36 2E 37 38 35 30 2C 57 2C 32 2C 31 30 2C
30 2E 38 34 2C 32 38 31 2E 31 2C 4D 2C 2D 33 24
47 50 47 47 41 2C 32 30 33 35 32 30 2E 30 30 30
2C 0 
Got: $GPGGA,203519.000,4026.4138,N,07956.7850,W,2,10,0.84,281.1,M,-3$GPGGA,203520.000,
RSSI: -94
Sent a reply
Received: 
24 47 50 47 47 41 2C 32 30 33 35 32 32 2E 30 30
30 2C 34 30 32 36 2E 34 31 31 38 2C 4E 2C 30 37
39 35 36 2E 37 38 35 31 2C 57 2C 32 2C 31 30 2C
30 2E 38 34 2C 32 38 30 2E 38 2C 4D 2C 2D 33 32
2E 35 33 2C 4E 2C 34 2E 36 38 2C 4B 2C 44 2A 33
41 0 
Got: $GPGGA,203522.000,4026.4118,N,07956.7851,W,2,10,0.84,280.8,M,-32.53,N,4.68,K,D*3A
RSSI: -92
Sent a reply
Received: 
24 47 50 47 47 41 2C 32 30 33 35 32 33 2E 30 30
30 2C 34 30 32 36 2E 34 31 31 30 2C 4E 2C 30 37
39 35 36 2E 37 38 35 31 2C 57 2C 32 2C 31 30 2C
30 2E 38 34 2C 32 38 30 2E 38 2C 4D 2C 2D 33 24
47 50 47 47 41 2C 32 30 33 35 32 34 2E 30 30 30
2C 0 
Got: $GPGGA,203523.000,4026.4110,N,07956.7851,W,2,10,0.84,280.8,M,-3$GPGGA,203524.000,
RSSI: -93
Sent a reply
Received: 
24 47 50 47 47 41 2C 32 30 33 35 32 36 2E 30 30
30 2C 34 30 32 36 2E 34 30 39 31 2C 4E 2C 30 37
39 35 36 2E 37 38 35 32 2C 57 2C 32 2C 31 30 2C
30 2E 38 34 2C 32 38 30 2E 35 2C 4D 2C 2D 33 24
47 50 47 47 41 2C 32 30 33 35 32 37 2E 30 30 30
2C 0 
Got: $GPGGA,203526.000,4026.4091,N,07956.7852,W,2,10,0.84,280.5,M,-3$GPGGA,203527.000,
RSSI: -91
Sent a reply
Received: 
24 47 50 47 47 41 2C 32 30 33 35 32 39 2E 30 30
30 2C 34 30 32 36 2E 34 30 37 30 2C 4E 2C 30 37
39 35 36 2E 37 38 35 30 2C 57 2C 32 2C 31 30 2C
30 2E 38 34 2C 32 38 30 2E 31 2C 4D 2C 2D 33 24
47 50 47 47 41 2C 32 30 33 35 33 30 2E 30 30 30
2C 0 
Got: $GPGGA,203529.000,4026.4070,N,07956.7850,W,2,10,0.84,280.1,M,-3$GPGGA,203530.000,
RSSI: -94
Sent a reply
Received: 
24 47 50 47 47 41 2C 32 30 33 35 33 32 2E 30 30
30 2C 34 30 32 36 2E 34 30 34 38 2C 4E 2C 30 37
39 35 36 2E 37 38 34 36 2C 57 2C 32 2C 31 30 2C
30 2E 38 34 2C 32 37 39 2E 39 2C 4D 2C 2D 33 24
47 50 47 47 41 2C 32 30 33 35 33 33 2E 30 30 30
2C 0 
Got: $GPGGA,203532.000,4026.4048,N,07956.7846,W,2,10,0.84,279.9,M,-3$GPGGA,203533.000,
RSSI: -88
Sent a reply
Received: 
24 47 50 47 47 41 2C 32 30 33 35 33 35 2E 30 30
30 2C 34 30 32 36 2E 34 30 32 35 2C 4E 2C 30 37
39 35 36 2E 37 38 34 31 2C 57 2C 32 2C 31 30 2C
30 2E 38 34 2C 32 37 39 2E 38 2C 4D 2C 2D 33 24
47 50 47 47 41 2C 32 30 33 35 33 36 2E 30 30 30
2C 0 
Got: $GPGGA,203535.000,4026.4025,N,07956.7841,W,2,10,0.84,279.8,M,-3$GPGGA,203536.000,
RSSI: -88
Sent a reply
Received: 
24 47 50 47 47 41 2C 32 30 33 35 33 38 2E 30 30
30 2C 34 30 32 36 2E 34 30 30 31 2C 4E 2C 30 37
39 35 36 2E 37 38 33 36 2C 57 2C 32 2C 31 30 2C
30 2E 38 34 2C 32 37 39 2E 37 2C 4D 2C 2D 33 24
47 50 47 47 41 2C 32 30 33 35 33 39 2E 30 30 30
2C 0 
Got: $GPGGA,203538.000,4026.4001,N,07956.7836,W,2,10,0.84,279.7,M,-3$GPGGA,203539.000,
RSSI: -84
Sent a reply
Received: 
24 47 50 47 47 41 2C 32 30 33 35 34 31 2E 30 30
30 2C 34 30 32 36 2E 33 39 37 38 2C 4E 2C 30 37
39 35 36 2E 37 38 32 38 2C 57 2C 32 2C 31 30 2C
30 2E 38 34 2C 32 37 39 2E 39 2C 4D 2C 2D 33 24
47 50 47 47 41 2C 32 30 33 35 34 32 2E 30 30 30
2C 0 
Got: $GPGGA,203541.000,4026.3978,N,07956.7828,W,2,10,0.84,279.9,M,-3$GPGGA,203542.000,
RSSI: -84
Sent a reply
Received: 
24 47 50 47 47 41 2C 32 30 33 35 34 34 2E 30 30
30 2C 34 30 32 36 2E 33 39 35 35 2C 4E 2C 30 37
39 35 36 2E 37 38 32 34 2C 57 2C 32 2C 30 39 2C
30 2E 38 39 2C 32 37 39 2E 39 2C 4D 2C 2D 33 24
47 50 47 47 41 2C 32 30 33 35 34 35 2E 30 30 30
2C 0 
Got: $GPGGA,203544.000,4026.3955,N,07956.7824,W,2,09,0.89,279.9,M,-3$GPGGA,203545.000,
RSSI: -81
Sent a reply
Received: 
24 47 50 47 47 41 2C 32 30 33 35 34 37 2E 30 30
30 2C 34 30 32 36 2E 33 39 33 33 2C 4E 2C 30 37
39 35 36 2E 37 38 32 30 2C 57 2C 32 2C 30 39 2C
30 2E 38 39 2C 32 37 39 2E 35 2C 4D 2C 2D 33 24
47 50 47 47 41 2C 32 30 33 35 34 38 2E 30 30 30
2C 0 
Got: $GPGGA,203547.000,4026.3933,N,07956.7820,W,2,09,0.89,279.5,M,-3$GPGGA,203548.000,
RSSI: -81
Sent a reply
Received: 
24 47 50 47 47 41 2C 32 30 33 35 35 30 2E 30 30
30 2C 34 30 32 36 2E 33 39 31 32 2C 4E 2C 30 37
39 35 36 2E 37 38 31 33 2C 57 2C 32 2C 31 30 2C
30 2E 38 34 2C 32 37 39 2E 36 2C 4D 2C 2D 33 24
47 50 47 47 41 2C 32 30 33 35 35 31 2E 30 30 30
2C 0 
Got: $GPGGA,203550.000,4026.3912,N,07956.7813,W,2,10,0.84,279.6,M,-3$GPGGA,203551.000,
RSSI: -74
Sent a reply
Received: 
24 47 50 47 47 41 2C 32 30 33 35 35 33 2E 30 30
30 2C 34 30 32 36 2E 33 38 39 34 2C 4E 2C 30 37
39 35 36 2E 37 38 30 39 2C 57 2C 32 2C 31 30 2C
30 2E 38 34 2C 32 38 30 2E 30 2C 4D 2C 2D 33 24
47 50 47 47 41 2C 32 30 33 35 35 34 2E 30 30 30
2C 0 
Got: $GPGGA,203553.000,4026.3894,N,07956.7809,W,2,10,0.84,280.0,M,-3$GPGGA,203554.000,
RSSI: -76
Sent a reply
Received: 
24 47 50 47 47 41 2C 32 30 33 35 35 36 2E 30 30
30 2C 34 30 32 36 2E 33 38 37 37 2C 4E 2C 30 37
39 35 36 2E 37 38 30 31 2C 57 2C 32 2C 31 30 2C
30 2E 38 34 2C 32 38 30 2E 32 2C 4D 2C 2D 33 24
47 50 47 47 41 2C 32 30 33 35 35 37 2E 30 30 30
2C 0 
Got: $GPGGA,203556.000,4026.3877,N,07956.7801,W,2,10,0.84,280.2,M,-3$GPGGA,203557.000,
RSSI: -72
Sent a reply
Received: 
24 47 50 47 47 41 2C 32 30 33 35 35 39 2E 30 30
30 2C 34 30 32 36 2E 33 38 36 39 2C 4E 2C 30 37
39 35 36 2E 37 37 39 31 2C 57 2C 32 2C 31 30 2C
30 2E 38 34 2C 32 38 30 2E 34 2C 4D 2C 2D 33 24
47 50 47 47 41 2C 32 30 33 36 30 30 2E 30 30 30
2C 0 
Got: $GPGGA,203559.000,4026.3869,N,07956.7791,W,2,10,0.84,280.4,M,-3$GPGGA,203600.000,
RSSI: -67
Sent a reply
